OSD.latitude,OSD.longitude,OSD.height [ft],OSD.pitch,OSD.yaw [360],GIMBAL.pitch
13.19379107,-59.64192998,14.4,-2.5,91.4,-27.9
13.19379117,-59.64193024,15.4,-2.1,91.5,-27.9
13.19379119,-59.64193027,16,-2.3,91.4,-27.9
13.19379121,-59.64193038,17,-2.2,91.3,-27.9
13.19379123,-59.64193041,18,-2.7,91.4,-27.9
13.19379093,-59.64193047,18.7,-2.9,91.3,-27.9
13.19379092,-59.64193053,19.3,-3.6,91.4,-27.9
13.19379072,-59.64193051,19.6,-4.2,91.4,-27.9
13.19379066,-59.64193057,20.3,-4.7,91.4,-27.9
13.19379077,-59.64193045,20.3,-4.3,91.5,-27.9
13.19379076,-59.64193045,20.6,-3.2,91.4,-27.9
13.19379094,-59.64193026,20.9,-4,91.3,-27.9
13.19379102,-59.64193017,21.6,-5,91.4,-27.9
13.19379098,-59.64193038,21.6,-5.1,91.5,-27.9
13.193791,-59.64193035,21.9,-3,91.5,-27.9
13.1937913,-59.64193025,22.3,-1.6,91.4,-27.9
13.19379137,-59.64193024,22.3,-3.4,91.3,-27.9
13.19379128,-59.64192998,22.9,-5.6,91.3,-27.9
13.19379129,-59.64192991,23.2,-4.4,91.4,-27.9
13.19379113,-59.6419296,23.6,-3.4,91.2,-27.9
13.1937911,-59.64192946,24.2,-2,91.4,-27.9
13.19379088,-59.64192972,24.6,-2.7,91.7,-27.9
13.19379083,-59.64192973,25.2,-6.4,91.5,-27.9
13.19379062,-59.6419298,25.5,-5.7,91.5,-27.8
13.19379054,-59.64192979,25.9,-3.2,91.5,-27.3
13.19379042,-59.64192977,25.9,-3.4,91.5,-26.4
13.19379035,-59.64192978,26.2,-3.1,91.4,-25.3
13.19379005,-59.6419298,26.2,-3.7,91.6,-24.1
13.19378994,-59.64192982,26.2,-4.8,91.6,-22.9
13.19378989,-59.64192971,26.2,-4.4,91.5,-21.7
13.19378984,-59.64192967,26.2,-4,91.6,-20.8
13.19378992,-59.64192984,26.2,-5.1,91.7,-20.3
13.19378993,-59.64192981,26.2,-4.8,91.6,-20.5
13.19379,-59.64192989,26.2,-3.7,91.4,-21.2
13.19379007,-59.64192989,26.2,-4.1,91.3,-22.3
13.19379015,-59.64193002,26.2,-4.5,91.3,-23.4
13.19379028,-59.64193005,26.2,-5.1,91.2,-24.7
13.1937905,-59.64193026,26.2,-6.4,91.3,-25.9
13.1937907,-59.64193027,26.2,-6,91.6,-27.1
13.19379091,-59.64193048,26.2,-4,91.4,-28.4
13.19379101,-59.64193051,26.2,-4.1,91.1,-29.6
13.19379103,-59.6419303,26.2,-5.2,91.1,-30.9
13.19379113,-59.64193028,26.2,-5.2,91.2,-32.1
13.19379099,-59.64193021,26.2,-4.4,91.3,-33.4
13.19379103,-59.64193013,26.2,-4.2,91.3,-34.6
13.1937911,-59.64193029,26.2,-4.1,91.2,-35.9
13.19379115,-59.64193027,26.2,-4.2,91.2,-37.1
13.19379112,-59.64193012,26.2,-4.2,91.3,-38.4
13.19379117,-59.64193006,26.2,-3.1,91.4,-39.6
13.19379107,-59.64192993,26.2,-2.7,91.3,-40.9
13.19379107,-59.64192985,26.2,-2.7,91.4,-42.1
13.19379113,-59.64193023,26.2,-3.5,91.3,-43.4
13.19379115,-59.64193025,26.2,-4.4,91.3,-44.6
13.19379121,-59.64193025,26.2,-4.5,91.4,-45.9
13.19379125,-59.64193026,26.2,-4.4,91.3,-47.1
13.1937912,-59.64193005,26.2,-4.5,91.3,-48.4
13.19379123,-59.64193,26.2,-3.8,91.3,-49.6
13.19379106,-59.64192983,26.2,-3.2,91.4,-50.9
13.19379109,-59.64192974,26.2,-3.2,91.3,-52.1
13.19379119,-59.64192976,26.2,-2.4,91.4,-53.4
13.19379122,-59.64192968,26.2,-0.6,91.4,-54.6
13.19379129,-59.64192991,26.2,-1.1,91.5,-55.9
13.19379137,-59.64192998,26.2,-4.3,91.4,-57.1
13.19379114,-59.64192997,26.2,-6.9,91.3,-58.4
13.1937911,-59.64193003,26.2,-6.9,91.3,-59.6
13.19379112,-59.6419302,26.2,-6,91.5,-60.9
13.19379112,-59.64193022,26.2,-5.9,91.5,-62.1
13.19379104,-59.64193018,26.2,-6,91.5,-63.4
13.19379104,-59.64193017,26.2,-5.2,91.4,-64.6
13.19379105,-59.64193019,26.2,-5.6,91.4,-65.9
13.19379103,-59.64193019,26.2,-5.9,91.3,-67.1
13.1937909,-59.64193035,26.2,-6.1,91.3,-68.4
13.19379091,-59.64193036,26.2,-5.6,91.4,-69.6
13.19379099,-59.64193029,26.2,-5.4,91.3,-70.9
13.19379101,-59.64193027,26.2,-5.4,91.3,-72.1
13.19379086,-59.64193035,26.2,-4.9,91.4,-73.4
13.19379087,-59.64193034,26.2,-5,91.3,-74.6
13.19379073,-59.64193039,26.2,-5.7,91.3,-75.9
13.19379073,-59.64193043,26.2,-6.1,91.4,-77.1
13.19379057,-59.64193021,26.2,-6.2,91.3,-78.4
13.19379053,-59.64193014,26.2,-6.2,91.5,-79.6
13.19379033,-59.64193024,26.2,-6.1,91.6,-80.9
13.19379029,-59.6419302,26.2,-5.8,91.5,-82.1
13.19379027,-59.64193025,26.2,-5.5,91.4,-83.4
13.19379022,-59.6419302,26.2,-5.5,91.3,-84.6
13.19379016,-59.64193013,26.2,-5.5,91.4,-85.9
13.19379013,-59.64193007,26.2,-5.5,91.5,-87.1
13.19379006,-59.64192997,26.2,-5.4,91.5,-88.4
13.19379001,-59.6419299,26.2,-5.7,91.5,-89.6
13.19379004,-59.64192985,26.2,-5.6,91.3,-90
13.19379005,-59.64192976,26.2,-5.2,91.4,-90
13.19378991,-59.64192966,26.2,-5.2,91.5,-90
13.19378988,-59.64192956,26.2,-5.6,91.5,-90
13.19378985,-59.64192956,26.2,-7.5,91.4,-90
13.19378982,-59.64192944,26.2,-11.2,91.4,-90
13.19378951,-59.64192933,26.2,-15.2,91.4,-90
13.19378943,-59.64192903,26.2,-20,91.5,-90
13.19378931,-59.64192847,26.2,-26.9,91.4,-90
13.19378923,-59.64192768,26.2,-30.5,91.2,-90
13.19378912,-59.6419261,26.2,-30.1,91.3,-90
13.19378903,-59.6419244,26.2,-29.8,91.4,-90
13.19378904,-59.64192228,26.2,-30.4,91.4,-90
13.19378896,-59.64191998,26.2,-29.4,91.4,-90
13.19378887,-59.64191701,26.2,-28.6,91.4,-90
13.19378878,-59.64191349,26.2,-27.9,91.4,-90
13.19378833,-59.64191034,26.2,-27.1,91.4,-90
13.1937882,-59.64190696,26.2,-26.9,91.5,-90
13.1937881,-59.64190233,26.2,-26.4,91.6,-90
13.19378792,-59.64189823,26.2,-25.4,91.4,-90
13.19378808,-59.6418934,26.2,-23.5,91.4,-90
13.19378801,-59.64188935,26.2,-21,91.3,-90
13.19378756,-59.64188331,26.2,-18.5,91.5,-90
13.19378741,-59.64187838,26.2,-18.3,91.5,-90
13.19378708,-59.64187336,26.2,-17.8,91.5,-90
13.19378687,-59.64186805,26.2,-17.4,91.3,-90
13.1937866,-59.64186193,26.2,-12.6,91.4,-90
13.19378639,-59.6418567,26.2,-1.1,91.3,-90
13.19378623,-59.64185219,26.2,5.8,91.3,-90
13.19378606,-59.64184711,26.5,9,91.1,-90
13.19378575,-59.64184197,26.5,23.9,90.4,-90
13.19378562,-59.64183763,26.5,28.6,92.5,-90
13.19378569,-59.64183469,26.5,30,92.4,-90
13.19378561,-59.64183138,26.2,30.5,91,-90
13.19378517,-59.64182904,26.2,26.4,91.2,-90
13.19378495,-59.6418265,32,23,90.9,-90
13.19378452,-59.64182537,32,21.1,90.1,-90
13.19378429,-59.64182429,32,14.3,91,-90
13.19378416,-59.64182373,32,8.6,91.6,-90
13.19378403,-59.64182331,32,4.9,91.4,-90
13.19378358,-59.64182259,32,2.3,91.2,-90
13.19378339,-59.64182234,32,0.7,91.4,-90
13.19378323,-59.64182186,32,-1,91.4,-90
13.19378306,-59.64182165,32,-2.5,91.5,-90
13.19378275,-59.64182153,32,-2.8,91.5,-90
13.19378258,-59.64182137,32,-0.9,91.5,-90
13.1937822,-59.64182098,32,-0.3,91.4,-90
13.19378203,-59.64182087,32,-1.4,91.5,-90
13.19378185,-59.64182086,32,-3,91.4,-90
13.19378171,-59.64182085,32,-4.6,91.5,-90
13.19378172,-59.64182063,32,-7.4,91.5,-90
13.19378169,-59.64182051,32,-10.5,91.4,-90
13.19378171,-59.64182046,32,-12.7,91.2,-90
13.19378171,-59.64182017,32,-13.7,91.1,-90
13.19378165,-59.64181967,32,-14.5,91.2,-90
13.19378165,-59.64181912,32,-17,91.5,-90
13.19378142,-59.6418181,32,-18,91.6,-90
13.19378132,-59.64181708,32,-17.5,91.5,-90
13.19378114,-59.64181558,32,-16.8,91.6,-90
13.19378103,-59.64181427,32,-16.5,91.8,-90
13.19378084,-59.64181266,32,-16.8,91.8,-90
13.19378072,-59.64181103,32,-16.5,91.7,-90
13.1937807,-59.64180883,32,-15.3,91.5,-90
13.1937806,-59.64180657,32,-15.9,91.6,-90
13.19378028,-59.64180474,32,-17.5,91.6,-90
13.19378014,-59.641802,32,-17.9,91.6,-90
13.19377975,-59.64179934,32,-18,91.8,-90
13.19377958,-59.64179674,32,-17.1,91.7,-90
13.19377947,-59.64179422,32,-15.5,91.7,-90
13.19377929,-59.64179119,32,-15.6,91.7,-90
13.19377922,-59.64178789,32,-17.3,91.9,-90
13.19377904,-59.64178464,32,-16,92,-90
13.19377858,-59.64178141,32,-15,91.6,-90
13.19377836,-59.64177777,32,-15.1,91.6,-90
13.19377826,-59.64177462,32,-16.4,91.8,-90
13.19377807,-59.64177113,32,-15.6,91.8,-90
13.19377791,-59.64176643,32,-13.2,91.6,-90
13.19377779,-59.64176267,32,-12.9,91.6,-90
13.19377776,-59.64175883,32,-11.3,91.4,-90
13.19377766,-59.64175464,32,-11.4,91.4,-90
13.1937776,-59.6417517,32,-15.4,91.5,-90
13.19377751,-59.64174707,32,-15.9,91.6,-90
13.19377723,-59.64174264,32,-12.3,91.2,-90
13.19377705,-59.64173857,32,-9.4,91.4,-90
13.19377697,-59.64173467,32,-7,91.5,-90
13.19377686,-59.64173011,32,-7.2,91.3,-90
13.19377651,-59.64172672,32,-5.4,91.5,-90
13.19377628,-59.64172231,32,-1.7,91.4,-90
13.19377634,-59.64171823,32,1.3,91.1,-90
13.19377624,-59.64171485,32,14.8,91.1,-90
13.193776,-59.64171126,32,26.9,90.7,-90
13.19377595,-59.64170877,32,28.4,91.4,-90
13.19377582,-59.64170621,32,28.8,91.4,-90
13.19377574,-59.64170435,32,25.6,91.2,-90
13.19377596,-59.64170374,32,21.9,90.5,-90
13.1937759,-59.64170294,32,16.6,90.2,-90
13.19377563,-59.6417028,32,8.3,91.3,-90
13.1937755,-59.64170266,32,2.5,91.4,-90
13.19377523,-59.64170268,32,1.2,91.3,-90
13.19377511,-59.64170272,32,1.7,91.4,-90
13.19377496,-59.64170282,32,0.9,91.5,-90
13.19377486,-59.64170302,32,-1,91.5,-90
13.19377474,-59.64170311,32,-2.3,91.7,-90
13.19377466,-59.64170337,32,0,91.5,-90
13.19377451,-59.6417033,32,5.4,91.2,-90
13.19377443,-59.64170361,32,9.3,91.4,-90
13.1937743,-59.64170405,32,11.3,91.3,-90
13.19377424,-59.64170469,32,14.4,91.1,-90
13.19377424,-59.64170536,32,17.5,90.9,-90
13.19377436,-59.64170672,32,19.6,90.7,-90
13.19377448,-59.64170817,32,21.7,90.6,-90
13.19377473,-59.6417102,32,23.6,90.5,-90
13.19377519,-59.64171263,32,23.1,90.5,-90
13.19377559,-59.64171541,32,19.4,90.7,-90
13.19377592,-59.6417183,32,17.7,90.6,-90
13.19377641,-59.64172189,32,17.3,90.6,-90
13.1937769,-59.64172514,32,14.3,90.8,-90
13.19377737,-59.64172851,32,9.4,90.9,-90
13.19377791,-59.64173211,32,4.2,91.1,-90
13.19377842,-59.64173606,32,-2.1,91.2,-90
13.19377885,-59.64173961,32,-5,91.5,-90
13.19377934,-59.64174312,32,-9.8,91.5,-90
13.19377957,-59.64174575,32,-12.3,91.3,-90
13.19377994,-59.64174892,32,-7.6,91.4,-90
13.19378023,-59.64175169,32,-4.4,91.4,-90
13.19378054,-59.64175426,32,-3.4,91.4,-90
13.19378079,-59.64175716,32,-3.9,91.3,-90
13.19378104,-59.64175986,32,-4.3,91.5,-90
13.19378138,-59.64176253,32,-4.5,91.5,-90
13.19378165,-59.64176471,32,-3.7,91.3,-90
13.19378179,-59.64176681,32,-3.3,91.2,-90
13.19378213,-59.64176943,32,-3.4,91.4,-90
13.19378218,-59.64177169,32,-3.6,91.4,-90
13.19378242,-59.64177374,32,-2.8,91.5,-90
13.19378276,-59.64177599,32,-2.9,91.6,-90
13.193783,-59.64177818,32,-3.1,91.7,-90
13.19378331,-59.64178029,32,-3,91.8,-90
13.19378346,-59.64178187,32,-3.7,91.2,-90
13.19378344,-59.64178409,32,-2.3,91.1,-90
13.19378358,-59.64178616,32,-1.2,91.3,-90
13.19378375,-59.64178791,32,-2,91.5,-90
13.1937839,-59.6417897,32,-3.9,91.3,-90
13.19378383,-59.64179199,32,-3.8,91.5,-90
13.19378392,-59.64179384,32,-3.1,91.6,-90
13.19378439,-59.64179581,32,-3.3,91.6,-90
13.1937846,-59.64179789,32,-2,91.4,-90
13.19378476,-59.64179968,32,-1.3,91.5,-90
13.19378496,-59.64180143,32,-1.6,91.5,-90
13.19378502,-59.64180342,32,-0.9,91.5,-90
13.19378517,-59.64180522,32,0,91.4,-90
13.19378519,-59.64180717,32,1.1,91.4,-90
13.19378531,-59.64180924,32,2.8,91.3,-90
13.19378537,-59.64181101,32,4.6,91.2,-90
13.19378545,-59.64181298,32,6.1,91,-90
13.19378542,-59.64181524,32,8,91,-90
13.19378551,-59.64181791,32,11.1,91,-90
13.19378573,-59.64182057,32,14.5,91.2,-90
13.19378588,-59.6418235,32,15.2,91.1,-90
13.19378606,-59.641827,32,15.7,91.3,-90
13.19378621,-59.64182999,32,15.3,91.2,-90
13.19378655,-59.64183378,32,15.1,91.1,-90
13.19378672,-59.64183696,32,16.6,91,-90
13.19378684,-59.64184107,32,16.3,91.5,-90
13.19378706,-59.64184547,32,14.5,91.5,-90
13.19378723,-59.64184978,32,13.9,91.2,-90
13.19378742,-59.64185407,32,13.1,91.3,-90
13.19378768,-59.64185964,32,12.5,91.4,-90
13.19378789,-59.64186422,32,12,91.3,-90
13.19378802,-59.64186852,32,10.3,91.3,-90
13.19378828,-59.64187453,32,8.2,91.5,-90
13.19378856,-59.64187891,32,5.2,91.4,-89.7
13.19378879,-59.64188389,32,0.1,91.4,-89
13.19378922,-59.64188835,32,-5,91.3,-88
13.19378948,-59.64189333,32,-6.8,91.3,-86.9
13.19379006,-59.64189826,32,-21.2,91.1,-85.7
13.1937903,-59.64190274,32,-28.2,91.4,-84.5
13.19379033,-59.64190594,32,-27.8,91.7,-83.5
13.19379046,-59.64190921,32,-26.9,91.6,-82.9
13.19379058,-59.64191115,32,-26.3,91.5,-82.6
13.19379067,-59.6419131,32,-25.8,91.6,-82.8
13.19379046,-59.64191456,32,-24.1,91.6,-83.6
13.19379052,-59.64191598,32,-20.8,91.5,-84.7
13.19379028,-59.64191711,32,-16.8,91.5,-85.9
13.19379021,-59.64191783,32,-14.1,91.6,-87.1
13.19379014,-59.64191834,32,-11.2,91.4,-88.3
13.19379007,-59.64191873,32,-9.2,91.3,-89.5
13.19379013,-59.64191904,32,-7.7,91.5,-90
13.19379012,-59.64191919,32,-6.7,91.5,-90
13.19378995,-59.64191945,32,-6.4,91.6,-89.7
13.19378986,-59.64191954,32,-6.7,91.5,-88.9
13.19379004,-59.64191979,32,-6.3,91.5,-87.9
13.19379003,-59.64191981,32,-5.2,91.5,-86.7
13.19378994,-59.64192005,32,-3.3,91.4,-85.5
13.19378994,-59.64192008,32,-4.1,91.3,-84.2
13.19378965,-59.64192025,32,-5.6,91.5,-83
13.19378957,-59.64192026,32,-5.4,91.4,-81.7
13.19378973,-59.64192034,32,-3.8,91.3,-80.5
13.19378973,-59.64192034,32,-2.9,91.4,-79.2
13.19378966,-59.64192059,32,-4.1,91.3,-78
13.19378967,-59.64192064,32,-5.3,91.4,-76.7
13.1937898,-59.64192069,32,-5,91.5,-75.5
13.19378984,-59.64192073,32,-4.9,91.5,-74.2
13.19378982,-59.64192071,32,-5.5,91.6,-73
13.1937898,-59.6419207,32,-6.5,91.4,-71.7
13.19378986,-59.6419208,32,-4.7,91.2,-70.5
13.19378989,-59.64192075,32,-1.2,91.8,-69.2
13.19378995,-59.64192102,32,-3.3,91.8,-68
13.19378993,-59.64192112,32,-8.2,91.5,-66.7
13.1937898,-59.64192101,32,-8,91.4,-65.5
13.19378978,-59.64192093,32,-4.4,91.8,-64.2
13.19378987,-59.64192092,32,-1.8,91.8,-63
13.19378986,-59.64192096,32,-2.5,91.6,-61.7
13.19378984,-59.64192097,32,-4.3,91.5,-60.5
13.19378979,-59.64192094,32,-4.2,91.4,-59.2
13.19378969,-59.64192098,33,-3.4,91.5,-58
13.19378965,-59.64192096,33,-3.9,91.6,-56.7
13.19378959,-59.64192121,33,-4.1,91.6,-55.5
13.19378965,-59.64192099,33,-4.3,91.5,-54.2
13.19378966,-59.64192095,33,-5,91.6,-53
13.19378967,-59.64192091,32,-4.7,91.6,-51.7
13.19378971,-59.64192113,33,-3.7,91.6,-50.5
13.19378972,-59.64192114,32,-4.4,91.5,-49.2
13.19378983,-59.64192117,33,-4.9,91.6,-48
13.19378985,-59.64192118,33,-4.8,91.6,-46.7
13.19378995,-59.64192104,33,-4.4,91.5,-45.5
13.19378998,-59.64192099,33,-5,91.5,-44.3
13.19378987,-59.64192088,33,-4.3,91.6,-43.4
13.19378983,-59.6419208,33,-3.1,91.4,-42.8
13.19378987,-59.64192095,33,-2.7,91.5,-42.6
13.19378987,-59.64192093,32,-4.2,91.6,-42.5
13.19378981,-59.64192084,32,-4.4,91.4,-42.5
13.19378978,-59.64192079,32,-3.7,91.5,-42.5
13.19378983,-59.64192071,32,-3.1,91.4,-42.5
13.19378986,-59.64192068,31,-1.7,91.1,-42.5
13.19378965,-59.64192078,30,-3,91.1,-42.5
13.1937896,-59.64192082,30,-3.1,91.1,-42.5
13.1937899,-59.64192078,29,-1.5,90.6,-42.5
13.19378996,-59.64192082,28,-1.5,90.5,-42.5
13.19379043,-59.64192088,27,-4.2,91.1,-42.5
13.19379054,-59.64192097,26,-5.5,91.7,-42.5
13.19379028,-59.64192116,26,-5.4,91.4,-42.5
13.19379022,-59.6419211,25,-4.1,90.6,-42.5
13.19379068,-59.6419219,25,-4.2,91.2,-42.5
13.19379082,-59.64192206,24,-5.2,91.5,-42.5
13.19379054,-59.64192182,24,-5,91.1,-42.5
13.19379056,-59.64192182,23,-4.7,90.9,-42.5
13.19379052,-59.6419215,23,-3.8,91.1,-42.5
13.19379055,-59.64192138,23,-3.3,91.7,-42.5
13.19379034,-59.64192118,23,-4.4,91.4,-42.5
13.1937902,-59.64192101,22,-4.2,91.6,-42.5
13.19379019,-59.64192076,22,-3.7,91.8,-42.5
13.19379001,-59.64192052,22,-4.3,91.9,-42.5
13.19379006,-59.64192028,21,-6.3,92,-42.5
13.19378995,-59.64191997,21,-9,92,-42.5
13.19378983,-59.64191959,21,-9.5,91.7,-42.5
13.19378969,-59.64191896,21,-9,91.7,-42.5
13.19378964,-59.64191813,21,-8.6,91.8,-42.5
13.19378963,-59.64191757,21,-10.1,91.8,-42.5
13.19378918,-59.64191629,21,-11.6,91.7,-42.5
13.19378904,-59.64191521,21,-12.2,91.6,-42.5
13.19378916,-59.64191424,21,-13.1,91.7,-42.5
13.19378907,-59.641913,21,-13.3,91.7,-42.5
13.19378914,-59.641912,21,-11.5,91.7,-42.5
13.19378909,-59.64191035,21,-11.3,91.5,-42.5
13.19378892,-59.6419089,21,-12.7,91.5,-42.5
13.19378887,-59.64190707,21,-14.6,91.6,-42.5
13.19378879,-59.64190519,21,-17.2,91.7,-42.5
13.19378875,-59.64190332,21,-19.9,91.7,-42.5
13.19378874,-59.64190109,21,-19.6,91.5,-42.5
13.19378872,-59.64189892,21,-18.4,91.6,-42.5
13.19378878,-59.64189624,21,-18.1,91.4,-42.5
13.19378865,-59.64189311,21,-18.5,91.5,-42.5
13.19378861,-59.64189039,21,-17.4,91.4,-42.5
13.19378855,-59.64188741,21,-17.1,91.4,-42.5
13.19378839,-59.6418844,21,-17.5,91.5,-42.5
13.19378828,-59.64188047,21,-18.8,91.7,-42.5
13.19378809,-59.64187736,21,-17.6,91.9,-42.5
13.19378791,-59.64187344,21,-14.8,91.7,-42.5
13.1937879,-59.64186983,21,-15.6,91.6,-42.5
13.1937878,-59.64186588,21,-17.2,91.7,-42.5
13.19378749,-59.64186203,21,-16.9,91.7,-42.5
13.19378736,-59.64185856,21,-17,91.6,-42.5
13.19378713,-59.64185371,21,-17.1,91.7,-42.5
13.19378698,-59.64184916,21,-17.6,91.7,-42.5
13.19378683,-59.64184495,21,-17.2,91.7,-42.5
13.19378665,-59.64184037,21,-16.2,91.7,-42.5
13.19378678,-59.64183537,21,-16,91.4,-42.5
13.1937867,-59.64183082,21,-16.8,91.6,-42.5
13.19378643,-59.64182664,21,-16.2,91.6,-42.5
13.19378625,-59.64182075,21,-14.9,91.4,-42.5
13.19378605,-59.6418169,21,-13.2,91.5,-42.5
13.19378588,-59.64181102,21,-10.3,91.4,-42.5
13.19378576,-59.6418064,21,-8.9,91.4,-42.5
13.19378561,-59.64180105,21,-8.4,91.4,-42.5
13.19378564,-59.64179624,21,-5.6,91.6,-42.5
13.19378553,-59.64179036,21,-4.4,91.4,-42.5
13.19378548,-59.64178585,21,-5.2,91.3,-42.5
13.19378542,-59.64178143,21,-5.9,91.4,-42.5
13.19378513,-59.64177553,21,-5.2,91.5,-42.5
13.19378504,-59.6417712,21,-2,91.3,-42.5
13.19378491,-59.64176636,21,1,91.4,-42.5
13.19378483,-59.64176162,21,2.4,91.4,-42.5
13.19378474,-59.64175776,21,10.3,90.7,-42.5
13.19378469,-59.64175348,21,28.3,90.6,-42.5
13.19378466,-59.64175043,21,32.2,89.3,-42.5
13.19378467,-59.6417473,21,33.2,87.8,-42.5
13.19378437,-59.64174498,21,30.9,86.6,-42.5
13.19378431,-59.64174345,21,22,86.4,-42.5
13.19378471,-59.64174347,21,11.8,85.1,-42.5
13.19378473,-59.64174277,21,6.7,83.6,-42.5
13.19378494,-59.64174231,21,6.4,82.4,-42.5
13.193785,-59.64174205,21,5.9,81,-42.5
13.19378514,-59.6417415,21,4.5,79.7,-42.5
13.19378527,-59.64174138,21,3.5,78.1,-42.5
13.19378515,-59.64174097,21,2.3,76.3,-42.5
13.19378519,-59.64174093,21,1.5,74.3,-42.5
13.19378525,-59.64174087,21,0.7,72.2,-42.5
13.19378528,-59.64174095,21,0.1,70,-42.5
13.1937851,-59.64174072,21,-0.2,67.8,-42.5
13.19378506,-59.64174079,21,-1.5,65.6,-42.5
13.19378507,-59.64174093,21,-2.7,63,-42.5
13.19378502,-59.64174103,21,-3.3,59.8,-42.5
13.1937851,-59.64174115,21,-3.9,56.4,-42.5
13.19378509,-59.64174124,21,-3.4,52.8,-42.5
13.19378499,-59.64174122,21,-2.8,49.1,-42.5
13.19378496,-59.64174131,21,-3.5,45.1,-42.5
13.19378511,-59.6417411,21,-4.1,41.3,-42.5
13.19378512,-59.6417411,21,-2.7,37.8,-42.5
13.19378511,-59.64174121,21,-2.7,33.7,-42.5
13.1937851,-59.64174124,21,-3.3,29.8,-42.5
13.19378499,-59.64174125,21,-3.2,26.1,-42.5
13.193785,-59.64174129,21,-2.8,22.4,-42.5
13.19378501,-59.64174143,21,-1.9,18.8,-42.5
13.19378503,-59.64174151,21,-0.7,14.9,-42.5
13.19378501,-59.64174153,21,-2.3,10.8,-42.5
13.19378499,-59.64174151,21,-3.7,7,-42.5
13.19378483,-59.64174165,21,-2.3,3.2,-42.5
13.19378489,-59.64174164,21,-0.8,359.6,-42.5
13.19378485,-59.64174166,21,-0.6,355.7,-42.5
13.19378483,-59.64174169,21,-1.5,351.8,-42.5
13.19378492,-59.64174163,21,-1.8,347.9,-42.5
13.19378495,-59.64174162,21,-1,344.3,-42.5
13.19378486,-59.64174176,21,-0.4,340.4,-42.5
13.19378485,-59.64174178,21,-0.5,336.4,-42.5
13.1937849,-59.64174188,21,-1.1,332.8,-42.5
13.19378495,-59.64174188,20,-0.5,329.2,-42.5
13.19378507,-59.64174199,20,0.6,326.4,-42.5
13.19378514,-59.64174201,20,1.4,324.3,-42.5
13.19378515,-59.64174207,20,1.6,322.2,-42.5
13.19378518,-59.64174208,20,1.2,320.3,-42.5
13.19378526,-59.64174208,20,1,318.6,-42.5
13.19378529,-59.64174208,20,1,317.3,-42.5
13.19378524,-59.64174203,20,1,316.3,-42.5
13.19378525,-59.64174201,20,0.6,315.2,-42.5
13.19378509,-59.64174206,21,1.3,313.8,-42.5
13.19378508,-59.64174207,20,1.3,311.7,-42.5
13.19378493,-59.64174205,20,1.2,309.5,-42.5
13.19378488,-59.64174205,20,1,307,-42.5
13.19378491,-59.64174191,20,0,304.4,-42.5
13.19378485,-59.64174188,20,0,301.7,-42.5
13.19378472,-59.64174183,20,-0.1,298.9,-42.5
13.1937847,-59.64174184,20,-0.2,296.3,-42.5
13.19378477,-59.64174199,20,1.3,293.3,-42.5
13.19378474,-59.64174207,20,1.3,291.9,-42.5
13.19378471,-59.64174211,20,2.5,291.7,-42.5
13.19378475,-59.6417422,20,4.1,290.8,-42.5
13.19378475,-59.64174223,20,5.7,290.3,-42.5
13.19378475,-59.64174229,20,15.2,290.5,-42.5
13.19378469,-59.6417422,20,22,291.3,-42.5
13.1937846,-59.6417419,20,25.6,291.5,-42.5
13.19378429,-59.6417412,20,30.4,291.4,-42.5
13.19378391,-59.64174007,20,30.5,290.9,-42.5
13.19378301,-59.64173844,20,26.9,291.1,-42.5
13.19378212,-59.64173646,20,25,291.7,-42.5
13.19378115,-59.64173448,20,28.2,292.6,-42.5
13.19377994,-59.64173168,20,27.7,292.2,-42.5
13.19377881,-59.64172865,20,26.2,291.1,-42.5
13.19377768,-59.64172564,20,25,290.7,-42.5
13.19377661,-59.64172276,20,25.3,291.4,-42.5
13.19377501,-59.64171849,20,29.1,291.9,-42.5
13.19377358,-59.64171471,20,27.2,291.9,-42.5
13.19377203,-59.64171054,20,14.8,291,-42.5
13.1937704,-59.64170705,21,-2.1,289.9,-42.5
13.19376856,-59.64170236,21,-9.6,290.2,-42.5
13.19376718,-59.64169896,21,-15.9,290.2,-42.5
13.19376561,-59.64169501,21,-26.9,290.4,-42.5
13.19376451,-59.64169196,21,-24.3,289.7,-42.5
13.1937634,-59.64168944,21,-13,288.8,-42.5
13.1937625,-59.64168714,21,-1,290.6,-42.5
13.19376166,-59.64168508,21,0.5,291.3,-42.5
13.19376118,-59.64168322,21,-2.2,290.6,-42.5
13.1937602,-59.64168057,21,-5.1,289.8,-42.5
13.19375958,-59.64167881,21,-8,289.5,-42.5
13.19375904,-59.64167703,21,-6.4,290.1,-42.5
13.19375875,-59.6416752,21,-4,289.8,-42.5
13.19375822,-59.64167332,21,-6.1,290.1,-42.5
13.19375748,-59.64167204,21,-8.6,290.2,-42.5
13.19375696,-59.64167056,21,-11.6,290,-42.5
13.19375653,-59.6416696,21,-13.3,290,-42.5
13.19375619,-59.64166883,21,-13.7,290,-42.5
13.19375598,-59.64166819,21,-15.1,290,-42.5
13.19375577,-59.6416678,21,-17.1,289.9,-42.5
13.19375569,-59.64166784,21,-18.3,289.8,-42.5
13.19375565,-59.64166798,21,-18.5,289.8,-42.5
13.19375568,-59.64166836,21,-17.6,290.1,-42.5
13.19375585,-59.64166894,21,-17.4,290,-42.5
13.19375629,-59.64166983,21,-19,290,-42.5
13.19375671,-59.64167095,21,-19.7,290,-42.5
13.19375715,-59.6416723,21,-18.4,290.1,-42.5
13.19375785,-59.64167424,21,-16.5,290.3,-42.5
13.19375851,-59.64167572,21,-14.3,290.5,-42.5
13.19375924,-59.64167768,21,-9.9,290.6,-42.5
13.19376008,-59.64167952,21,-2.2,291,-42.5
13.19376098,-59.64168167,21,-1.1,290.6,-42.5
13.19376158,-59.64168364,21,-1.6,290,-42.5
13.19376232,-59.6416859,21,6.6,290.6,-42.5
13.19376284,-59.6416877,21,17.5,291.1,-42.5
13.19376331,-59.64168935,21,20.4,291.3,-42.5
13.19376364,-59.64169089,21,19,292.1,-42.5
13.1937638,-59.64169187,21,15.4,291.9,-42.5
13.19376367,-59.64169239,21,12.3,291,-42.5
13.19376364,-59.64169288,21,8.6,290.7,-42.5
13.19376354,-59.64169289,21,5.4,290.5,-42.5
13.19376351,-59.64169301,21,2.8,290.5,-42.5
13.19376345,-59.64169306,21,2.3,290.5,-42.5
13.19376331,-59.64169304,21,2,290.6,-42.5
13.19376332,-59.64169288,21,0.3,290.6,-42.5
13.19376318,-59.64169279,21,-0.9,290.3,-42.5
13.19376304,-59.64169293,21,-0.6,290.2,-42.5
13.19376286,-59.64169286,21,-2.2,290.1,-42.5
13.19376248,-59.6416931,21,-3.3,290.3,-42.5
13.19376234,-59.64169311,21,-2.7,290.3,-42.5
13.19376249,-59.641693,21,-1.3,290,-42.5
13.19376241,-59.641693,21,-1.2,290.3,-42.5
13.19376247,-59.64169308,21,-1.1,290,-42.5
13.19376244,-59.64169313,21,0.4,290.3,-42.5
13.19376255,-59.64169317,21,0.2,290.4,-42.5
13.19376257,-59.64169319,21,-0.4,290.2,-42.5
13.19376253,-59.64169333,21,-0.9,290.2,-42.5
13.19376253,-59.6416934,21,0.1,290.7,-42.5
13.19376242,-59.6416934,21,1,290.5,-42.5
13.19376243,-59.64169343,21,1,290.5,-42.5
13.1937624,-59.64169361,21,0.3,290.7,-42.5
13.1937624,-59.64169365,21,0.5,290.8,-42.5
13.19376254,-59.64169368,21,0.6,290.7,-42.5
13.19376255,-59.64169368,21,-0.3,290.6,-42.5
13.19376256,-59.64169369,21,0.4,290.7,-42.5
13.19376259,-59.64169373,21,1.4,290.4,-42.5
13.19376263,-59.64169363,21,0.7,289.9,-42.5
13.19376267,-59.64169363,21,0.4,290.2,-42.5
13.19376286,-59.6416938,21,2,290.2,-42.5
13.19376289,-59.64169385,21,3.8,290.3,-42.5
13.19376289,-59.64169386,21,2.8,290.5,-42.5
13.19376291,-59.64169385,21,0.8,290.4,-42.5
13.19376315,-59.64169403,21,1,290.2,-42.5
13.19376322,-59.64169409,21,3,290.3,-42.5
13.19376318,-59.64169397,21,3,290.3,-42.5
13.19376314,-59.64169393,21,1.7,290.3,-42.5
13.19376313,-59.64169395,21,1.9,290.5,-42.5
13.19376312,-59.64169394,21,3.1,290.4,-42.5
13.19376304,-59.64169372,21,1.8,290.2,-42.5
13.19376301,-59.64169365,21,0.3,290.3,-42.5
13.19376315,-59.64169393,21,1.2,290.4,-42.5
13.19376318,-59.64169392,21,1.4,290.2,-42.5
13.19376312,-59.64169397,21,1.2,290.3,-42.5
13.19376313,-59.64169398,21,1.6,290.5,-42.5
13.19376312,-59.64169399,21,2.7,290.4,-42.5
13.1937631,-59.64169399,21,2,290.3,-42.5
13.19376293,-59.64169403,21,0.6,290.2,-42.5
13.19376291,-59.64169401,21,0.9,290.5,-42.5
13.19376304,-59.64169408,21,1.4,290.5,-42.5
13.19376306,-59.64169408,21,1.8,290.3,-42.5
13.19376301,-59.64169404,21,1.6,290.2,-42.5
13.19376302,-59.64169403,21,1.4,290.4,-42.5
13.19376308,-59.64169398,21,1.4,290.5,-42.5
13.19376313,-59.64169399,21,2.3,290.5,-42.5
13.19376301,-59.64169387,21,2.1,290.4,-42.5
13.19376301,-59.64169381,21,1.4,290.5,-42.5
13.19376315,-59.6416939,21,1.3,290.5,-42.5
13.19376319,-59.64169387,21,1.2,290.4,-42.5
13.1937633,-59.6416941,21,1.2,290.3,-42.5
13.19376338,-59.64169413,21,3,290.4,-42.5
13.19376342,-59.64169415,21,3.7,290.5,-42.5
13.19376347,-59.64169419,21,3.5,290.4,-42.5
13.19376343,-59.64169403,21,3.3,290.1,-42.5
13.19376341,-59.64169397,21,2.7,290.3,-42.5
13.19376342,-59.64169407,21,1.2,290.4,-42.5
13.19376342,-59.641694,21,0.2,290.3,-42.5
13.1937634,-59.64169417,21,0.5,290.4,-42.5
13.19376339,-59.64169419,21,1.8,290.5,-42.5
13.1937633,-59.64169407,21,1.8,290.5,-42.5
13.19376329,-59.64169408,21,2.2,290.6,-42.5
13.19376333,-59.64169415,21,3.3,290.7,-42.5
13.19376335,-59.64169412,21,2.7,290.6,-42.5
13.19376334,-59.64169417,21,1.7,290.4,-42.5
13.19376339,-59.64169416,21,1.6,290.3,-42.5
13.1937635,-59.64169406,20,2,290.4,-42.5
13.19376355,-59.64169407,20,3.7,290.6,-42.5
13.19376345,-59.64169399,20,4.7,291.1,-42.5
13.19376341,-59.64169393,20,3.1,290.5,-42.5
13.19376332,-59.64169386,20,1.8,290.1,-42.5
13.19376324,-59.64169379,20,0.9,290.3,-42.5
13.19376324,-59.6416939,20,0.4,290.4,-42.5
13.19376324,-59.64169385,20,0.1,290.4,-42.5
13.19376332,-59.6416938,20,0.4,290.3,-42.5
13.19376332,-59.64169377,20,1.6,290.4,-42.5
13.19376333,-59.6416938,20,1.6,290.5,-42.5
13.19376336,-59.64169374,20,-0.4,290.6,-42.5
13.19376339,-59.64169387,20,-0.4,290.5,-42.5
13.19376346,-59.64169391,20,2.2,290.4,-42.5
13.19376348,-59.6416939,20,3.8,290.5,-42.5
13.19376353,-59.64169391,20,2.7,290.6,-42.5
13.19376363,-59.64169411,20,2,290.5,-42.5
13.19376371,-59.64169412,20,2.6,290.5,-42.5
13.19376367,-59.64169409,20,3.2,290.4,-42.5
13.19376369,-59.64169409,20,3,290.6,-42.5
13.19376361,-59.64169407,20,2.6,290.6,-42.5
13.19376353,-59.64169402,20,2.4,290.5,-42.5
13.19376344,-59.64169401,20,1.9,290.3,-42.5
13.19376341,-59.64169397,20,1.1,290.2,-42.5
13.19376333,-59.64169398,20,0.3,290.2,-42.5
13.1937633,-59.64169396,20,0.5,290.4,-42.5
13.19376329,-59.64169396,20,2.2,290.5,-42.5
13.19376331,-59.64169398,20,3.4,290.5,-42.5
13.1937633,-59.64169389,20,2.6,290.4,-42.5
13.19376329,-59.64169385,20,1.5,290.4,-42.5
13.19376338,-59.64169398,20,2.1,290.3,-42.5
13.19376342,-59.641694,20,3.3,290.5,-42.5
13.1937633,-59.64169407,20,3.5,290.5,-42.5
13.19376328,-59.64169405,20,2.6,290.5,-42.5
13.19376331,-59.64169423,20,2.2,290.5,-42.5
13.19376332,-59.64169426,20,3,290.5,-42.5
13.19376334,-59.64169429,20,2.9,290.4,-42.5
13.19376336,-59.64169427,20,2.3,290.5,-42.5
13.19376334,-59.64169429,20,2.4,290.5,-42.5
13.19376336,-59.64169429,20,3,290.4,-42.5
13.19376333,-59.64169424,20,3,290.5,-42.5
13.19376335,-59.64169421,20,2.2,290.4,-42.5
13.19376331,-59.64169404,20,2.2,290.4,-42.5
13.19376331,-59.64169397,20,2.3,290.5,-42.5
13.19376333,-59.641694,20,1.7,290.5,-42.5
13.19376335,-59.64169397,20,2.1,290.4,-42.5
13.19376317,-59.641694,20,2.4,290.4,-42.5
13.19376316,-59.64169395,20,2.3,290.4,-42.5
13.19376332,-59.64169406,20,2.2,290.3,-42.5
13.19376333,-59.64169404,20,2.3,290.4,-42.5
13.19376328,-59.64169408,20,2.1,290.3,-42.5
13.19376333,-59.64169407,20,2.3,290.3,-42.5
13.19376307,-59.64169404,20,2.6,290.4,-42.5
13.19376303,-59.641694,20,2.7,290.5,-42.5
13.19376308,-59.64169375,20,2.4,290.5,-42.5
13.19376308,-59.64169368,20,1.8,290.3,-42.5
13.19376296,-59.64169359,20,1.1,290.3,-42.5
13.19376295,-59.64169348,20,0.7,290.3,-42.5
13.19376311,-59.64169371,20,0.3,290.2,-42.5
13.19376313,-59.64169368,20,0.6,290.3,-42.5
13.19376321,-59.64169362,20,0.9,290.3,-42.5
13.19376328,-59.64169358,20,0.4,290.2,-42.5
13.19376312,-59.64169353,20,0.3,290.3,-42.5
13.19376314,-59.64169353,20,0.8,290.5,-42.5
13.19376315,-59.64169349,20,1.9,290.3,-42.5
13.19376319,-59.64169346,20,2.7,290.4,-42.5
13.19376309,-59.64169368,20,2.2,290.2,-42.5
13.19376309,-59.64169366,20,1.2,290.2,-42.5
13.19376308,-59.64169377,20,0.7,290.3,-42.5
13.19376309,-59.64169376,20,0.5,290.5,-42.5
13.19376316,-59.6416939,20,0.1,290.4,-42.5
13.1937632,-59.64169391,20,0.6,290.3,-42.5
13.193763,-59.64169385,20,1.2,290.1,-42.5
13.19376302,-59.64169383,20,1,290.1,-42.5
13.19376304,-59.6416938,20,0.3,290.3,-42.5
13.19376309,-59.64169377,20,0.9,290.3,-42.5
13.19376314,-59.64169391,20,1.8,290.2,-42.5
13.1937632,-59.64169393,20,1.8,290.4,-42.5
13.1937632,-59.64169397,20,2,290.3,-42.5
13.19376328,-59.64169397,20,2.5,290.3,-42.5
13.19376337,-59.64169394,20,1.9,290.4,-42.5
13.19376359,-59.64169391,20,1,290.4,-42.5
13.19376368,-59.64169393,20,2.2,290.3,-42.5
13.19376378,-59.64169391,20,2.8,290.4,-42.5
13.19376376,-59.64169381,20,2,290.4,-42.5
13.19376383,-59.64169377,20,1.3,290.3,-42.5
13.19376378,-59.64169366,20,1.3,290.5,-42.5
13.19376381,-59.6416936,20,0.9,290.4,-42.5
13.19376363,-59.64169367,20,0.1,290.4,-42.5
13.19376365,-59.64169363,20,0.7,290.3,-42.5
13.19376361,-59.64169361,20,1.6,290.5,-42.5
13.19376361,-59.64169359,20,2.3,290.8,-42.5
13.19376363,-59.64169349,20,1.5,290.4,-42.5
13.19376367,-59.64169342,20,0.3,290.1,-42.5
13.19376365,-59.64169335,20,0.5,290.1,-42.5
13.19376362,-59.64169332,20,0.5,290.4,-42.5
13.19376342,-59.64169341,20,0,290.6,-42.5
13.19376338,-59.64169339,20,0,290.6,-42.5
13.19376332,-59.64169347,20,0.4,290.6,-42.5
13.19376329,-59.64169349,20,0.9,290.6,-42.5
13.19376324,-59.64169342,20,0.9,290.6,-42.5
13.19376323,-59.64169339,20,0,290.6,-42.5
13.19376324,-59.64169361,20,0.6,290.5,-42.5
13.19376326,-59.64169366,20,1.5,290.5,-42.5
13.19376312,-59.64169358,20,0.7,290.5,-42.5
13.19376306,-59.64169358,20,0,290.6,-42.5
13.19376312,-59.64169364,20,0.5,290.3,-42.5
13.19376312,-59.64169364,20,0.9,290.1,-42.5
13.1937629,-59.64169379,20,0.8,290.2,-42.5
13.19376283,-59.64169381,20,0,290.5,-42.5
13.19376281,-59.64169383,20,0.4,290.5,-42.5
13.19376279,-59.64169388,20,2,290.4,-42.5
13.19376277,-59.6416939,20,2.1,290.2,-42.5
13.19376278,-59.64169388,20,1,290.2,-42.5
13.19376266,-59.64169382,20,0.3,290.2,-42.5
13.19376264,-59.6416938,20,0,290.2,-42.5
13.19376257,-59.64169368,20,1.1,290.3,-42.5
13.19376262,-59.64169365,20,1.6,290.3,-42.5
13.19376265,-59.64169373,20,1.4,290.1,-42.5
13.1937627,-59.64169371,20,1,290.3,-42.5
13.19376252,-59.64169372,20,1.2,290.4,-42.5
13.19376256,-59.6416937,20,1.5,290.3,-42.5
13.19376247,-59.64169368,20,1.3,290.5,-42.5
13.19376249,-59.64169364,20,0.8,290.6,-42.5
13.19376267,-59.64169398,20,1.3,290.5,-42.5
13.19376271,-59.64169402,20,1.8,290.3,-42.5
13.19376277,-59.64169396,20,1.5,290.2,-42.5
13.19376283,-59.64169394,20,1,290.2,-42.5
13.19376276,-59.64169392,20,0.5,290.3,-42.5
13.19376282,-59.6416939,20,0.7,290.2,-42.5
13.19376272,-59.64169397,20,1.2,290.2,-42.5
13.19376274,-59.64169398,20,1.6,290.4,-42.5
13.19376269,-59.64169405,20,1.5,290.3,-42.5
13.19376285,-59.64169401,20,0.9,290.2,-42.5
13.19376287,-59.64169404,20,0.5,290.2,-42.5
13.19376297,-59.64169412,20,0.9,290.3,-42.5
13.19376301,-59.64169421,20,1.2,290.3,-42.5
13.19376308,-59.64169421,20,1.5,290.3,-42.5
13.19376309,-59.64169417,20,1.2,290.4,-42.5
13.19376315,-59.64169415,20,1.3,290.4,-42.5
13.19376304,-59.64169415,20,1.3,290.4,-42.5
13.19376307,-59.64169412,20,1.1,290.3,-42.5
13.19376303,-59.64169409,20,1,290.3,-42.5
13.19376307,-59.64169403,20,0.7,290.4,-42.5
13.19376286,-59.6416942,20,0.8,290.3,-42.5
13.19376286,-59.64169422,20,1.5,290.3,-42.5
13.19376288,-59.64169399,20,1.3,290.3,-42.5
13.19376289,-59.64169391,20,0.3,290.2,-42.5
13.19376292,-59.64169394,20,-0.5,290.2,-42.5
13.19376293,-59.64169386,20,-0.3,290.1,-42.5
13.19376287,-59.64169403,20,-0.3,290.1,-42.5
13.19376287,-59.64169402,20,-0.2,290.2,-42.5
13.19376286,-59.64169409,20,0,290.2,-42.5
13.19376305,-59.64169422,20,0.6,290.2,-42.5
13.19376304,-59.64169426,19,0.5,290.1,-42.5
13.19376318,-59.64169425,19,0.5,290,-42.5
13.19376327,-59.64169444,19,-0.2,290,-42.5
13.19376342,-59.64169458,18,0.6,290,-42.5
13.19376325,-59.6416943,18,4.5,289.9,-42.5
13.1937632,-59.64169427,17,1.9,290.4,-42.5
13.19376299,-59.6416945,17,0.8,291.2,-42.4
13.19376299,-59.64169458,17,4.2,291,-41.9
13.19376302,-59.64169417,17,4,290.5,-40.8
13.19376307,-59.64169401,17,1.5,290.3,-39.4
13.19376326,-59.64169415,17,0.8,290.4,-37.8
13.19376336,-59.64169409,17,1.3,290.3,-36.1
13.19376315,-59.64169417,17,0.5,290.4,-34.4
13.19376318,-59.64169412,17,0.3,290.5,-32.7
13.19376315,-59.64169416,17,1.3,290.5,-31
13.19376314,-59.64169417,17,1.5,290.4,-29.3
13.19376337,-59.6416943,17,1.1,290.5,-27.7
13.19376345,-59.6416943,17,1.8,290.6,-26.4
13.19376349,-59.6416944,17,2.3,290.5,-25.5
13.19376355,-59.64169446,17,2.2,290.4,-25
13.1937635,-59.64169447,17,2.5,290.5,-24.8
13.19376356,-59.64169449,16,2.7,290.5,-24.8
13.19376347,-59.64169427,16,1.8,290.5,-24.8
13.19376345,-59.6416942,15,1.1,290.5,-24.8
13.1937635,-59.64169423,15,0.9,290.4,-24.8
13.19376347,-59.64169422,14,1,290.2,-24.8
13.1937635,-59.64169419,13,0.3,289.7,-24.8
13.19376352,-59.64169416,13,0,289.7,-24.8
13.19376323,-59.64169424,12,0.9,289.2,-24.8
13.19376321,-59.64169423,11,2.6,290.1,-24.8
13.19376325,-59.6416944,11,4.7,290.3,-24.8
13.19376313,-59.64169435,10,2.1,290.6,-24.8
13.1937628,-59.64169425,10,0.8,290.5,-24.8
13.19376273,-59.64169409,10,-1.8,290.6,-24.8
13.19376262,-59.641694,10,-2.1,290.6,-24.8
13.19376262,-59.64169387,10,-1.3,290.4,-24.8
13.19376283,-59.64169347,10,-1.3,290.4,-24.8
13.19376292,-59.64169326,10,-2.1,290.6,-24.8
13.19376297,-59.64169311,10,-2.7,290.5,-24.8
13.19376307,-59.64169296,10,-2.8,290.2,-24.8
13.1937632,-59.64169337,10,-2.1,290.4,-24.8
13.19376331,-59.64169345,10,-0.4,290.5,-24.8
13.19376295,-59.64169341,10,0.4,290.5,-24.8
13.19376293,-59.64169344,10,0.1,290.4,-24.8
13.19376291,-59.64169352,10,-0.4,290.4,-24.8
13.19376288,-59.64169357,10,0.4,290.3,-24.8
13.19376292,-59.64169354,10,0.6,290.5,-24.8
13.19376283,-59.64169363,10,-0.1,290.2,-24.8
13.19376268,-59.64169369,10,-0.7,289.8,-24.8
13.19376257,-59.64169372,10,-1.4,290.2,-24.8
13.19376259,-59.64169345,11,-0.6,290.5,-24.8
13.19376286,-59.64169322,11,1.8,290.5,-24.8
13.19376284,-59.6416931,11,1.4,290.4,-24.8
13.19376293,-59.64169301,12,0.1,290.3,-24.8
13.19376305,-59.64169287,12,-0.4,290.5,-24.8
13.1937632,-59.64169273,12,-1.9,290.2,-24.8
13.19376299,-59.6416932,13,-1.3,290.1,-24.8
13.19376299,-59.64169332,13,0.2,290.4,-24.8
13.19376322,-59.64169325,13,2,290.7,-24.8
13.19376329,-59.64169335,14,1.9,290.6,-24.8
13.19376341,-59.64169341,14,1.8,290.4,-24.8
13.19376347,-59.64169348,14,1.6,290.6,-24.8
13.19376349,-59.6416939,14,2.3,290.6,-24.8
13.19376351,-59.64169402,14,2.6,290.6,-24.8
13.1937634,-59.64169453,14,2.7,290.6,-24.8
13.19376343,-59.64169466,14,2.1,290.5,-24.8
13.19376353,-59.64169478,14,1.5,290.5,-24.8
13.19376352,-59.64169485,14,2.4,290.1,-24.8
13.19376354,-59.64169496,14,1,291.1,-24.8
13.19376351,-59.64169506,14,0.6,290.8,-24.8
13.19376326,-59.64169509,14,1,290.2,-24.8
13.19376302,-59.64169501,14,-1.6,290.5,-24.8
13.19376286,-59.641695,14,-4.3,290.4,-24.8
13.19376278,-59.64169491,14,-2.9,290,-24.8
13.19376279,-59.6416949,14,-2,290.4,-24.8
13.19376278,-59.64169485,14,-1.7,290.3,-24.8
13.19376298,-59.64169496,14,-0.1,290.6,-24.8
13.19376304,-59.64169491,14,-0.5,290.6,-24.8
13.19376295,-59.6416949,14,-2,290.5,-24.8
13.193763,-59.64169481,14,-3,290.2,-24.8
13.19376292,-59.64169459,14,-1.7,290.6,-24.8
13.1937629,-59.6416945,14,1.2,290.6,-24.8
13.19376288,-59.64169459,14,-1.6,290.2,-24.8
13.1937629,-59.64169448,14,-5.3,290.1,-24.8
13.19376298,-59.6416945,14,-5.7,289.9,-24.8
13.19376309,-59.64169449,14,-3.1,289.9,-24.8
13.19376293,-59.64169449,14,-0.6,289.8,-24.8
13.19376294,-59.64169452,14,-1.6,290,-24.8
13.19376304,-59.64169445,14,-2.2,289.9,-24.8
13.19376315,-59.64169448,14,-1.3,289.9,-24.8
13.19376327,-59.64169486,14,1.9,290.3,-24.8
13.19376337,-59.64169501,14,3.5,290.6,-24.8
13.19376328,-59.64169506,14,2.8,290.8,-24.8
13.19376339,-59.64169513,14,3,290.6,-24.8
13.19376355,-59.64169513,14,2.9,290.4,-24.8
13.19376382,-59.64169509,14,1.8,290.4,-24.8
13.19376401,-59.64169495,14,1.9,290.4,-24.8
13.19376432,-59.64169483,14,2,290.4,-24.8
13.19376481,-59.64169463,14,1.9,290.5,-24.8
13.19376528,-59.64169441,14,1.1,290.3,-24.8
13.19376553,-59.64169417,14,0.3,290.1,-24.8
13.19376604,-59.64169394,14,0.9,290.3,-24.8
13.19376641,-59.64169386,14,1.1,290.3,-24.8
13.19376679,-59.64169368,14,0.3,290.1,-24.8
13.19376688,-59.64169385,14,0.4,290.1,-24.8
13.19376705,-59.64169383,14,1.2,290.4,-24.8
13.19376695,-59.64169386,14,1.4,290.4,-24.8
13.19376695,-59.64169383,14,1.1,290.4,-24.8
13.19376683,-59.64169393,14,0.4,290.3,-24.8
13.19376677,-59.641694,14,0.6,290.5,-24.8
13.1937667,-59.64169411,14,2.2,290.6,-24.8
13.19376671,-59.64169409,14,3.8,290.9,-24.8
13.19376656,-59.64169411,14,3.3,290.6,-24.8
13.19376651,-59.64169412,14,1.7,290.3,-24.8
13.19376663,-59.64169435,14,1.1,290.4,-24.8
13.19376667,-59.64169445,14,1.9,290.5,-24.8
13.19376646,-59.64169446,14,3.8,290.6,-24.8
13.19376645,-59.64169453,14,4.3,290.7,-24.8
13.19376652,-59.64169449,14,3.8,290.6,-24.8
13.19376649,-59.64169455,14,3.9,290.4,-24.8
13.19376634,-59.64169477,14,3.1,290.8,-24.8
13.19376657,-59.64169475,14,2.6,290.6,-24.8
13.1937667,-59.6416948,14,3.3,290.6,-24.8
13.19376687,-59.64169481,14,4.1,290.7,-24.8
13.19376686,-59.64169487,14,3.7,290.7,-24.8
13.19376704,-59.64169481,14,2.7,290.4,-24.8
13.19376718,-59.64169481,14,2.9,290.3,-24.8
13.19376736,-59.64169477,14,2.5,290.5,-24.8
13.19376751,-59.64169465,14,2.6,290.4,-24.8
13.1937677,-59.64169458,14,3.3,290.3,-24.8
13.19376802,-59.64169451,14,3.1,289.9,-24.8
13.19376824,-59.64169441,14,3.3,289.7,-24.8
13.19376848,-59.64169468,14,2.8,289.4,-24.8
13.19376874,-59.64169465,14,2.1,289,-24.8
13.19376857,-59.64169451,14,2.7,288.5,-24.8
13.19376872,-59.64169442,14,2.4,288.4,-24.8
13.19376876,-59.64169479,14,1.6,288.2,-24.8
13.19376893,-59.64169481,14,1.1,287.9,-24.8
13.19376929,-59.6416943,14,2.6,287.7,-24.8
13.19376961,-59.64169419,14,2.6,287.7,-24.8
13.19376992,-59.64169416,14,3,287.8,-24.8
13.19377026,-59.64169411,14,1.3,287.3,-24.8
13.19377056,-59.64169394,14,1.9,287.5,-24.8
13.19377102,-59.64169394,14,1.5,287.6,-24.8
13.19377151,-59.64169433,14,8,288,-24.8
13.19377199,-59.64169449,14,12.7,288.6,-24.8
13.19377252,-59.64169445,14,8.3,288.1,-24.8
13.19377298,-59.64169437,14,3.2,287.6,-24.8
13.1937732,-59.64169442,14,2.1,287.7,-24.8
13.19377373,-59.64169445,14,6.1,287.8,-24.8
13.19377426,-59.64169444,14,7.5,288.2,-24.8
13.19377485,-59.64169436,14,5,288,-24.8
13.19377502,-59.64169446,14,4.2,287.4,-24.8
13.19377551,-59.64169444,14,5.4,287.6,-24.8
13.19377589,-59.64169408,14,5.1,287.5,-24.8
13.19377631,-59.64169394,14,3.6,287.2,-24.8
13.19377663,-59.64169392,14,3.8,287.2,-24.8
13.19377687,-59.64169389,14,4.6,287.4,-24.8
13.19377675,-59.64169403,14,5.3,287.5,-24.8
13.19377682,-59.64169404,14,5.6,287.4,-24.8
13.19377672,-59.6416941,14,3.9,287.4,-24.8
13.19377666,-59.64169413,14,3.2,287.6,-24.8
13.19377664,-59.64169408,14,4.2,287.4,-24.8
13.19377659,-59.6416941,14,5.4,287.4,-24.8
13.19377635,-59.64169385,14,3,287.4,-24.8
13.19377627,-59.64169379,14,-1.5,287.3,-24.8
13.19377647,-59.64169384,14,1,287.5,-24.8
13.19377627,-59.64169397,14,6.8,287.4,-24.8
13.19377618,-59.64169395,14,8.9,287.4,-24.8
13.1937761,-59.64169391,14,4.9,287.4,-24.8
13.19377612,-59.64169402,14,0.6,287.5,-24.8
13.19377603,-59.64169393,14,0.5,287.3,-24.8
13.19377599,-59.64169398,14,3.7,287.6,-24.8
13.19377597,-59.64169404,14,5.4,287.8,-24.8
13.1937757,-59.64169403,14,3.9,287.6,-24.8
13.19377565,-59.64169399,14,2,287.5,-24.8
13.19377578,-59.64169421,14,1.5,287.7,-24.8
13.1937758,-59.64169428,14,3.1,287.6,-24.8
13.19377584,-59.64169419,14,5.6,287.4,-24.8
13.19377597,-59.64169419,14,4.3,287.3,-24.8
13.19377591,-59.64169428,14,3.1,287.3,-24.8
13.19377595,-59.64169431,14,3.3,287.5,-24.8
13.19377585,-59.64169443,14,4.1,287.5,-24.8
13.19377589,-59.64169447,14,4.6,287.2,-24.8
13.19377587,-59.64169436,14,5.1,287.6,-24.8
13.19377593,-59.64169435,14,6.1,288,-24.8
13.19377593,-59.64169442,14,3.8,287.6,-24.8
13.19377594,-59.64169441,14,1.7,287.1,-24.8
13.19377591,-59.64169444,14,2.8,287.2,-24.8
13.19377591,-59.64169443,14,2.8,287.6,-24.8
13.19377583,-59.64169431,14,2.2,287.7,-24.8
13.19377586,-59.64169431,14,2.3,287.5,-24.8
13.19377584,-59.64169432,14,1.6,287.5,-24.8
13.19377587,-59.64169431,14,1.1,287.6,-24.8
13.19377583,-59.64169463,14,4,287.3,-24.8
13.19377586,-59.64169467,14,4.7,287.3,-24.8
13.19377586,-59.64169483,14,2.8,287.5,-24.8
13.19377587,-59.6416949,14,2.6,287.7,-24.8
13.19377573,-59.64169485,14,3.6,287.6,-24.8
13.19377573,-59.64169489,14,4.4,287.6,-24.8
13.19377555,-59.64169459,14,3.9,287.6,-24.8
13.19377548,-59.64169454,14,2,287.7,-24.8
13.19377541,-59.64169458,14,1.3,287.5,-24.8
13.1937754,-59.64169459,14,3.5,287.5,-24.8
13.19377548,-59.64169479,14,3.8,287.3,-24.8
13.19377546,-59.64169484,14,3.1,287.7,-24.8
13.19377522,-59.64169501,14,3.7,288.3,-24.8
13.19377515,-59.64169509,14,5.2,287.8,-24.8
13.19377477,-59.64169504,14,5.5,288.3,-24.8
13.19377464,-59.64169502,14,3.2,288.4,-24.8
13.19377451,-59.64169504,14,1.9,287.9,-24.8
13.19377436,-59.64169502,14,-0.1,287.2,-24.8
13.19377402,-59.64169494,14,-0.9,286.8,-24.8
13.19377398,-59.64169495,14,2.5,287.6,-24.8
13.19377408,-59.64169492,14,3.6,287.7,-24.8
13.19377413,-59.64169488,14,2.5,287.5,-24.8
13.19377416,-59.64169494,14,2.8,287.5,-24.8
13.19377422,-59.64169494,14,3.9,287.7,-24.8
13.19377427,-59.64169505,14,4.2,287.9,-24.8
13.19377437,-59.64169497,14,2.7,287.5,-24.8
13.19377443,-59.64169488,14,1.5,287.4,-24.8
13.19377445,-59.64169483,14,1.4,287.5,-24.8
13.19377427,-59.64169491,14,0.8,287.6,-24.8
13.19377429,-59.64169487,14,0.7,287.8,-24.8
13.19377445,-59.64169483,14,1.1,287.6,-24.8
13.19377449,-59.64169482,14,1.6,287.5,-24.8
13.19377446,-59.64169483,14,0.3,287.4,-24.8
13.19377447,-59.64169482,14,2.1,287.6,-24.8
13.19377449,-59.64169484,14,2.4,287.6,-24.8
13.19377455,-59.64169483,14,2.3,287.6,-24.8
13.19377462,-59.64169503,14,1.5,287.3,-24.8
13.19377462,-59.64169515,14,3.2,286.9,-24.8
13.19377465,-59.64169528,14,3.6,287.2,-24.8
13.19377472,-59.64169535,14,4,287.3,-24.8
13.19377476,-59.64169525,14,5.5,287.3,-24.8
13.19377483,-59.64169527,14,4.5,288,-24.8
13.19377496,-59.64169513,14,3.3,287.7,-24.8
13.19377507,-59.64169505,14,2,287.7,-24.8
13.19377499,-59.64169508,14,2.2,287.9,-24.8
13.19377489,-59.64169524,14,4.4,287.8,-24.8
13.19377475,-59.64169525,14,5.3,287.7,-24.8
13.19377472,-59.64169544,14,2.7,287.5,-24.8
13.19377464,-59.64169556,14,1.5,287.3,-24.8
13.19377467,-59.64169563,14,4.7,287.5,-24.8
13.1937749,-59.6416957,14,6.4,287.8,-24.8
13.19377496,-59.64169575,14,4.7,287.3,-24.8
13.19377487,-59.64169556,14,3.7,287.1,-24.8
13.19377488,-59.64169563,14,4.8,287.4,-24.8
13.19377489,-59.64169562,14,5.9,287.9,-24.8
13.1937749,-59.64169559,14,3.7,287.5,-24.8
13.19377486,-59.64169563,14,2,287.1,-24.8
13.19377481,-59.64169562,14,3.4,287.4,-24.8
13.19377467,-59.64169545,14,3.2,287.9,-24.8
13.19377473,-59.64169533,14,1.8,287.4,-24.8
13.19377454,-59.64169541,14,1.5,287.3,-24.8
13.19377453,-59.6416954,14,3.2,287.7,-24.8
13.19377447,-59.64169515,14,4.2,287.7,-24.8
13.19377448,-59.64169507,14,2.9,287.5,-24.8
13.19377452,-59.64169517,14,1.4,287.5,-24.8
13.19377458,-59.64169519,14,1.9,287.6,-24.8
13.19377472,-59.64169543,14,5.3,287.5,-24.8
13.19377481,-59.64169544,14,5.3,287.9,-24.8
13.19377471,-59.6416954,14,3.8,287.5,-24.8
13.19377479,-59.64169539,14,4.5,287.3,-24.8
13.19377447,-59.64169531,14,3.4,287.1,-24.8
13.19377448,-59.64169525,14,2,287.5,-24.8
13.19377468,-59.64169533,14,2.6,287.7,-24.8
13.19377478,-59.64169533,14,4.7,287.6,-24.8
13.19377473,-59.64169547,14,5.5,287.5,-24.8
13.19377486,-59.64169545,14,6.5,287.6,-24.8
13.19377478,-59.64169544,14,4.9,287.6,-24.8
13.19377482,-59.64169535,14,2.1,287.6,-24.8
13.19377487,-59.64169535,14,1.6,287.5,-24.8
13.19377492,-59.64169529,14,2.9,287.7,-24.8
13.19377474,-59.64169544,14,3.1,287.7,-24.8
13.19377478,-59.64169544,14,3.4,287.8,-24.8
13.19377481,-59.64169549,14,2.7,287.8,-24.8
13.19377483,-59.64169553,14,3.9,287.6,-24.8
13.19377485,-59.64169567,14,5.2,287.4,-24.8
13.19377491,-59.64169569,14,4.7,287.3,-24.8
13.19377501,-59.64169582,14,3.4,287.1,-24.8
13.19377509,-59.64169584,14,4.4,287.2,-24.8
13.19377501,-59.64169575,14,5.1,287.4,-24.8
13.19377508,-59.64169571,14,3.5,287.4,-24.8
13.19377504,-59.64169571,14,3.6,287.5,-24.8
13.19377506,-59.64169568,14,4.5,287.7,-24.8
13.19377501,-59.64169573,14,4.5,288,-24.8
13.19377497,-59.64169571,14,3.8,288.2,-24.8
13.19377488,-59.64169572,14,4.7,288.1,-24.8
13.1937748,-59.64169572,14,6.6,287.8,-24.8
13.19377462,-59.64169586,14,5.1,288,-24.8
13.1937746,-59.64169573,14,2.2,287.6,-24.8
13.19377456,-59.64169576,14,3.4,287.5,-24.8
13.19377456,-59.64169576,14,5.5,287.3,-24.8
13.19377441,-59.6416956,14,4.4,287.4,-24.8
13.19377434,-59.64169548,14,3,287.6,-24.8
13.19377418,-59.6416958,14,2.5,287.9,-24.8
13.19377417,-59.64169581,14,4,287.8,-24.8
13.1937741,-59.64169588,14,5,287.7,-24.8
13.1937741,-59.64169582,14,3.8,287.7,-24.8
13.1937742,-59.64169595,14,2.6,287.4,-24.8
13.19377422,-59.64169592,14,3.1,287.6,-24.8
13.19377422,-59.64169593,14,2.8,287.8,-24.8
13.19377426,-59.64169586,14,1.9,287.5,-24.8
13.19377426,-59.64169579,14,1.1,287.3,-24.8
13.19377434,-59.64169575,14,1.4,287.4,-24.8
13.19377439,-59.64169581,14,3.2,287.5,-24.8
13.19377437,-59.64169573,14,3.7,287.5,-24.8
13.19377436,-59.64169575,14,2,287.4,-24.8
13.19377438,-59.64169572,14,1.6,287.6,-24.8
13.19377447,-59.64169568,14,2.3,287.5,-24.8
13.19377447,-59.64169571,14,2.5,287.6,-24.8
13.19377445,-59.64169568,14,2.6,287.6,-24.8
13.19377451,-59.64169563,14,2.4,287.5,-24.8
13.19377447,-59.6416958,14,2.6,287.4,-24.8
13.19377453,-59.64169582,14,3.1,287.5,-24.8
13.19377456,-59.64169591,14,3.7,287.6,-24.8
13.1937746,-59.64169593,14,4.2,287.8,-24.8
13.1937747,-59.64169586,14,3.5,287.7,-24.8
13.19377479,-59.64169582,14,2.9,287.5,-24.8
13.19377486,-59.64169596,14,3.1,287.5,-24.8
13.19377496,-59.64169596,14,3.8,287.5,-24.8
13.19377473,-59.64169594,14,4,287.5,-24.8
13.19377477,-59.6416959,14,3.7,287.7,-24.8
13.19377469,-59.64169594,14,3.7,287.8,-24.8
13.1937747,-59.6416959,14,3.4,287.6,-24.8
13.19377468,-59.64169588,14,2.4,287.4,-24.8
13.19377464,-59.64169581,14,2.4,287.5,-24.8
13.19377458,-59.64169582,14,3.1,287.5,-24.8
13.19377462,-59.64169578,14,3.2,287.5,-24.8
13.19377464,-59.64169579,14,3.3,287.4,-24.8
13.19377468,-59.64169574,14,3,287.5,-24.8
13.19377475,-59.6416957,14,2.8,287.6,-24.8
13.19377482,-59.64169565,14,2.7,287.6,-24.8
13.19377494,-59.64169571,14,2.8,287.5,-24.8
13.19377505,-59.64169567,14,3.6,287.5,-24.8
13.19377485,-59.64169556,14,2.9,287.5,-24.8
13.19377489,-59.6416955,14,2.1,287.6,-24.8
13.19377499,-59.64169552,14,2.2,287.6,-24.8
13.19377505,-59.64169552,14,3.4,287.6,-24.8
13.19377506,-59.6416955,14,3.8,287.6,-24.8
13.19377509,-59.64169546,14,3.2,287.4,-24.8
13.19377488,-59.64169568,14,3.2,287.6,-24.8
13.19377486,-59.6416957,14,3.3,287.8,-24.8
13.19377487,-59.64169582,14,2.8,287.8,-24.8
13.19377489,-59.64169583,14,3.3,287.5,-24.8
13.19377494,-59.64169562,14,3.6,287.7,-24.8
13.19377496,-59.64169559,14,3.1,287.6,-24.8
13.19377493,-59.64169558,14,2.6,287.5,-24.8
13.19377495,-59.64169555,14,2.7,287.5,-24.8
13.19377479,-59.64169567,14,2.8,287.6,-24.8
13.19377465,-59.64169553,14,2.6,287.5,-24.8
13.19377458,-59.64169551,14,2.8,287.5,-24.8
13.19377462,-59.64169547,14,3.3,287.7,-24.8
13.19377465,-59.64169553,14,2.7,287.7,-24.8
13.19377478,-59.64169551,14,3.5,288.1,-24.8
13.19377521,-59.64169545,14,4.8,288.2,-24.8
13.19377571,-59.64169528,14,4.1,288,-24.8
13.19377644,-59.64169524,14,3.2,287.9,-24.8
13.19377738,-59.64169496,14,2.5,287.7,-24.8
13.19377849,-59.6416948,14,3.6,288,-24.8
13.19377972,-59.64169449,14,4.1,288,-24.8
13.19378086,-59.64169421,14,3.7,287.8,-24.8
13.19378229,-59.64169381,14,3.6,287.4,-24.8
13.19378334,-59.64169366,14,3.9,287.4,-24.8
13.19378484,-59.64169329,14,4.5,287.5,-24.8
13.19378598,-59.64169304,14,3.6,287.2,-24.8
13.19378688,-59.64169269,14,3,287,-24.8
13.19378757,-59.64169254,14,3.8,287.1,-24.8
13.19378818,-59.6416924,14,4.5,287.4,-24.8
13.19378829,-59.64169246,14,3.9,287.5,-24.8
13.19378858,-59.64169242,14,3.9,287.4,-24.8
13.19378866,-59.64169238,14,4.1,287.4,-24.8
13.19378883,-59.64169239,14,4.3,287.5,-24.8
13.19378899,-59.6416921,14,4.1,287.5,-24.8
13.19378911,-59.64169207,14,4.4,287.5,-24.8
13.19378921,-59.64169195,14,4.1,287.5,-24.8
13.19378939,-59.64169181,14,3.7,287.6,-24.8
13.19378939,-59.64169179,14,3.6,287.5,-24.8
13.19378939,-59.64169168,14,4.4,287.5,-24.8
13.19378942,-59.64169152,14,4.6,287.6,-24.8
13.1937894,-59.64169147,14,4,287.6,-24.8
13.19378937,-59.64169178,14,3.1,287.4,-24.8
13.19378925,-59.64169186,14,3.1,287.5,-24.8
13.19378885,-59.64169179,14,4.1,287.7,-24.8
13.19378867,-59.64169186,14,4.2,287.8,-24.8
13.19378847,-59.64169198,14,4.3,287.6,-24.8
13.1937883,-59.64169205,14,3.9,287.6,-24.8
13.19378814,-59.64169215,14,4.2,287.7,-24.8
13.19378806,-59.64169223,14,4.7,287.7,-24.8
13.19378799,-59.64169233,14,4.1,287.6,-24.8
13.19378792,-59.64169237,14,4,287.7,-24.8
13.19378796,-59.6416924,14,4.4,287.6,-24.8
13.19378795,-59.64169242,14,4,287.6,-24.8
13.19378802,-59.64169254,14,3.9,287.6,-24.8
13.19378803,-59.64169259,14,4.1,287.6,-24.8
13.19378804,-59.64169256,14,4.2,287.6,-24.8
13.19378805,-59.64169257,14,4.2,287.6,-24.8
13.19378802,-59.64169281,14,3.6,287.6,-24.8
13.19378803,-59.64169288,14,4.2,287.5,-24.8
13.19378794,-59.64169283,14,4.1,287.6,-24.8
13.19378796,-59.64169287,14,3.5,287.6,-24.8
13.19378803,-59.64169293,14,3.2,287.5,-24.8
13.19378806,-59.64169302,14,3.9,287.5,-24.8
13.19378809,-59.64169321,14,3.9,287.6,-24.8
13.19378814,-59.64169329,14,2.8,287.6,-24.8
13.19378802,-59.64169327,14,3.3,287.6,-24.8
13.19378804,-59.64169337,14,3.6,287.7,-24.8
13.19378821,-59.64169354,14,3.8,287.7,-24.8
13.19378827,-59.64169365,14,3.8,287.7,-24.8
13.19378814,-59.64169358,14,3.5,287.5,-24.8
13.19378805,-59.64169357,14,2.8,287.5,-24.8
13.193788,-59.6416936,14,2.5,287.6,-24.8
13.19378801,-59.64169367,14,3,287.6,-24.8
13.19378787,-59.64169374,14,4.8,287.7,-24.8
13.19378782,-59.64169382,14,4.4,287.9,-24.8
13.19378777,-59.64169381,14,2.7,287.7,-24.8
13.19378776,-59.64169382,14,3,287.9,-24.8
13.19378795,-59.64169384,14,3.3,288.3,-24.8
13.19378825,-59.64169377,14,2.6,288.1,-24.8
13.1937886,-59.64169372,14,1.4,287.9,-24.8
13.19378929,-59.64169357,14,2.2,288,-24.8
13.19379041,-59.64169332,14,3.3,288.1,-24.8
13.1937917,-59.64169304,14,2.8,287.8,-24.8
13.19379317,-59.64169289,14,2.8,287.5,-24.8
13.19379467,-59.64169263,14,6.3,287.6,-24.8
13.1937957,-59.64169278,14,6.4,287.8,-24.8
13.19379692,-59.64169255,14,4.1,287.6,-24.8
13.19379791,-59.64169248,14,3,287,-24.8
13.1937987,-59.64169236,14,2.3,287.2,-24.8
13.19379903,-59.64169202,14,3,287.6,-24.8
13.19379942,-59.64169167,14,3.1,287.8,-24.8
13.19379956,-59.64169153,14,3.1,287.4,-24.8
13.19379965,-59.64169141,14,1.9,287.5,-24.8
13.19379945,-59.6416915,14,2.1,287.5,-24.8
13.19379934,-59.64169149,14,2.2,287.4,-24.8
13.19379922,-59.64169127,14,1.4,287.3,-24.8
13.19379906,-59.64169126,14,1.3,287.6,-24.8
13.19379885,-59.64169121,14,1.9,287.7,-24.8
13.19379865,-59.64169124,14,2.4,287.5,-24.8
13.19379843,-59.64169124,14,2.6,287.7,-24.8
13.19379827,-59.64169124,14,0.9,287.5,-24.8
13.1937981,-59.64169127,14,0.8,287.4,-24.8
13.193798,-59.64169133,14,2.3,287.5,-24.8
13.19379785,-59.64169123,14,3.4,287.6,-24.8
13.19379774,-59.64169123,14,2.6,287.6,-24.8
13.19379767,-59.64169125,14,2.2,287.6,-24.8
13.19379759,-59.64169124,14,2,287.5,-24.8
13.19379749,-59.6416912,14,2.1,287.5,-24.8
13.19379746,-59.64169119,14,2,287.6,-24.8
13.19379737,-59.64169125,14,2.3,287.6,-24.8
13.19379741,-59.64169124,14,2.5,287.6,-24.8
13.19379764,-59.64169117,14,2.1,287.5,-24.8
13.1937978,-59.64169111,14,2.2,287.5,-24.8
13.19379791,-59.64169126,14,2.3,287.5,-24.8
13.19379807,-59.64169124,14,2.1,287.4,-24.8
13.19379808,-59.64169115,14,1.8,287.5,-24.8
13.19379822,-59.64169114,14,1.9,287.5,-24.8
13.1937984,-59.64169094,14,2.5,287.6,-24.8
13.1937985,-59.64169088,14,1.9,287.4,-24.8
13.19379849,-59.64169106,14,1.3,287.4,-24.8
13.19379846,-59.64169111,14,2.2,287.7,-24.8
13.19379835,-59.64169121,14,2.7,287.5,-24.8
13.19379827,-59.64169125,14,1.6,287.4,-24.8
13.19379804,-59.64169123,14,1.7,287.6,-24.8
13.19379788,-59.64169129,14,2.4,287.7,-24.8
13.19379766,-59.64169113,14,2.7,287.6,-24.8
13.19379752,-59.64169109,14,1.1,287.4,-24.8
13.19379752,-59.64169106,14,-0.3,287.4,-24.8
13.19379749,-59.64169103,14,0,287.4,-24.8
13.19379732,-59.64169116,14,0.4,287.6,-24.8
13.19379733,-59.64169103,14,0.4,287.6,-24.8
13.19379734,-59.641691,14,0,287.7,-24.8
13.19379739,-59.64169098,14,-0.8,287.6,-24.8
13.19379737,-59.64169122,14,0.3,287.5,-24.8
13.1937974,-59.64169133,14,2.7,287.7,-24.8
13.19379734,-59.64169149,14,3.6,287.7,-24.8
13.19379739,-59.64169155,14,3.9,287.5,-24.8
13.19379746,-59.64169177,14,3.9,287.5,-24.8
13.19379754,-59.64169169,14,4,287.7,-24.8
13.19379753,-59.64169177,14,3.5,287.8,-24.8
13.19379766,-59.64169153,14,3,287.6,-24.8
13.19379772,-59.64169148,14,2.6,287.7,-24.8
13.19379783,-59.64169145,14,2.8,287.6,-24.8
13.19379792,-59.64169146,14,3.8,287.5,-24.8
13.19379806,-59.64169141,14,4.3,287.5,-24.8
13.19379805,-59.64169141,14,3.4,287.5,-24.8
13.19379804,-59.64169141,14,3.6,287.3,-24.8
13.19379803,-59.64169137,14,3.4,287.3,-24.8
13.19379795,-59.64169141,14,2.2,287.4,-24.8
13.19379792,-59.6416915,14,1.5,287.3,-24.8
13.19379795,-59.64169152,14,1.8,287.4,-24.8
13.19379792,-59.64169146,14,3.8,287.8,-24.8
13.19379793,-59.64169146,14,3.3,287.7,-24.8
13.19379806,-59.64169127,14,2,287.6,-24.8
13.19379805,-59.64169125,14,1.8,287.5,-24.8
13.19379801,-59.64169111,14,3.1,287.7,-24.8
13.19379804,-59.64169114,14,4,287.6,-24.8
13.19379805,-59.6416911,14,3.9,287.5,-24.8
13.19379802,-59.64169109,14,3.3,287.6,-24.8
13.19379788,-59.64169115,14,4.1,287.8,-24.8
13.19379787,-59.64169117,14,5.5,287.7,-24.8
13.19379773,-59.64169129,14,4,287.6,-24.8
13.19379764,-59.64169132,14,3.7,287.9,-24.8
13.19379749,-59.64169141,14,3.5,287.9,-24.8
13.19379742,-59.64169145,14,3.4,287.6,-24.8
13.19379741,-59.64169142,14,4,287.6,-24.8
13.1937974,-59.64169147,14,4.8,287.8,-24.8
13.19379745,-59.64169143,14,5.8,287.9,-24.8
13.19379751,-59.64169142,14,6,287.7,-24.8
13.19379756,-59.64169161,14,5,287.6,-24.8
13.19379759,-59.64169165,14,5,287.8,-24.8
13.19379761,-59.64169176,14,5.4,287.8,-24.8
13.19379769,-59.6416918,14,5.7,287.7,-24.8
13.19379738,-59.64169184,14,6.1,287.6,-24.8
13.1937973,-59.64169184,14,4.8,287.9,-24.8
13.19379722,-59.64169188,14,3.5,287.9,-24.8
13.1937972,-59.64169186,14,3.4,287.6,-24.8
13.19379715,-59.64169167,14,3.5,287.6,-24.8
13.19379714,-59.64169161,14,3.5,287.7,-24.8
13.19379735,-59.64169155,14,3.4,287.7,-24.8
13.1937974,-59.64169148,14,3.2,287.5,-24.8
13.19379741,-59.64169153,14,2.9,287.5,-24.8
13.19379746,-59.6416915,14,3.8,287.7,-24.8
13.19379733,-59.64169133,14,4.2,287.7,-24.8
13.19379733,-59.64169124,14,3,287.7,-24.8
13.19379732,-59.64169132,14,1.1,287.6,-24.8
13.19379736,-59.64169132,14,2,287.6,-24.8
13.19379731,-59.64169125,14,4.4,287.7,-24.8
13.19379736,-59.64169123,14,4.4,287.8,-24.8
13.19379739,-59.64169125,14,4,287.5,-24.8
13.19379733,-59.64169124,14,4,287.7,-24.8
13.19379727,-59.64169126,14,4.6,287.8,-24.8
13.19379729,-59.64169123,14,4.5,287.6,-24.8
13.19379722,-59.64169134,14,3.4,287.5,-24.8
13.19379724,-59.64169132,14,4.2,287.7,-24.8
13.19379723,-59.64169135,14,3.2,287.8,-24.8
13.19379726,-59.64169134,14,2.5,287.5,-24.8
13.19379723,-59.64169129,14,3,287.7,-24.8
13.19379724,-59.64169134,14,5.1,287.8,-24.8
13.19379723,-59.6416914,14,6.4,287.9,-24.8
13.19379728,-59.64169138,14,4.5,287.8,-24.8
13.19379741,-59.64169138,14,0,287.5,-24.8
13.1937975,-59.64169146,14,2.3,287.2,-24.8
13.19379759,-59.64169157,14,10.2,287.9,-24.8
13.19379774,-59.6416916,14,10,287.5,-24.8
13.19379771,-59.64169167,14,6.2,287,-24.8
13.19379784,-59.64169161,14,5.1,287.4,-24.8
13.19379807,-59.64169161,14,5.8,287.3,-24.8
13.19379814,-59.64169154,14,4.2,287.2,-24.8
13.19379801,-59.64169142,14,4.3,287.7,-24.8
13.19379806,-59.64169152,14,6.3,287.8,-24.8
13.19379805,-59.64169152,14,6.2,287.8,-24.8
13.19379799,-59.64169148,14,5.2,287.7,-24.8
13.1937979,-59.64169146,14,3.4,287.8,-24.8
13.19379783,-59.64169147,14,4,287.7,-24.8
13.19379753,-59.64169128,14,5.6,288,-24.8
13.19379745,-59.64169123,14,6.3,288.2,-24.8
13.19379732,-59.64169145,14,4.6,287.4,-24.8
13.19379728,-59.64169143,14,4.1,287.5,-24.8
13.19379726,-59.64169147,14,5,288.1,-24.8
13.19379722,-59.64169146,14,5,287.9,-24.8
13.19379719,-59.64169139,14,4.3,287.5,-24.8
13.19379719,-59.64169131,14,2.7,287.7,-24.8
13.19379706,-59.64169127,14,2,287.5,-24.8
13.19379702,-59.64169124,14,3.1,287.7,-24.8
13.1937971,-59.64169122,14,4.1,288,-24.8
13.19379714,-59.64169135,14,5.2,288.1,-24.8
13.1937971,-59.6416914,14,3.2,287.8,-24.8
13.19379705,-59.64169146,14,4.2,288.1,-24.8
13.19379682,-59.64169156,14,7.7,288.5,-24.8
13.1937968,-59.64169159,14,8.3,288.5,-24.8
13.19379664,-59.64169155,14,5.2,287.8,-24.8
13.19379661,-59.64169147,14,3.3,287.4,-24.8
13.19379656,-59.64169133,14,2.7,287.6,-24.8
13.19379654,-59.64169125,14,2.7,287.7,-24.8
13.19379658,-59.6416912,14,2.6,287.4,-24.8
13.19379657,-59.6416911,14,1,287.4,-24.8
13.19379653,-59.64169127,14,0.9,287.5,-24.8
13.19379664,-59.64169123,14,1.4,287.5,-24.8
13.19379677,-59.64169137,14,1.4,287.3,-24.8
13.19379686,-59.64169144,14,4.7,287.4,-24.8
13.1937968,-59.64169159,14,6.2,287.3,-24.8
13.19379685,-59.64169164,14,4.4,287.5,-24.8
13.1937969,-59.64169177,14,4.2,287.7,-24.8
13.19379698,-59.6416918,14,5.5,287.5,-24.8
13.19379699,-59.64169178,14,3.7,287.6,-24.8
13.19379699,-59.64169179,14,3.4,287.8,-24.8
13.19379694,-59.64169193,14,5.3,287.8,-24.8
13.19379698,-59.64169197,14,5.4,287.6,-24.8
13.19379688,-59.64169198,14,5.3,287.7,-24.8
13.19379693,-59.64169193,14,4.7,287.7,-24.8
13.19379695,-59.64169192,14,3.6,287.7,-24.8
13.19379701,-59.64169189,14,3.8,287.6,-24.8
13.19379696,-59.64169191,14,3.8,287.7,-24.8
13.19379698,-59.64169187,14,3.1,287.7,-24.8
13.19379685,-59.64169193,14,3,287.5,-24.8
13.19379687,-59.64169192,14,5.1,287.7,-24.8
13.19379705,-59.64169191,14,5.8,287.9,-24.8
13.19379709,-59.64169183,14,3.2,287.7,-24.8
13.19379724,-59.64169192,14,3.3,287.6,-24.8
13.19379726,-59.64169192,14,3,287.5,-24.8
13.19379728,-59.6416919,14,2.2,287.6,-24.8
13.19379731,-59.64169185,14,2.5,287.5,-24.8
13.19379724,-59.64169182,14,2.8,287.4,-24.8
13.19379725,-59.64169178,14,2.5,287.6,-24.8
13.1937972,-59.64169176,14,2.2,287.6,-24.8
13.19379723,-59.64169161,14,2.1,287.5,-24.8
13.19379725,-59.64169154,14,2.3,287.5,-24.8
13.19379725,-59.64169146,14,1.1,287.2,-24.8
13.19379717,-59.64169147,14,0.3,287.3,-24.8
13.19379711,-59.64169141,14,1.3,287.7,-24.8
13.19379711,-59.64169142,14,1.3,287.3,-24.8
13.1937971,-59.64169139,14,1.1,287.3,-24.8
13.19379704,-59.64169127,14,0.7,287.7,-24.8
13.19379702,-59.64169121,14,0.1,287.3,-24.8
13.19379712,-59.64169116,14,-0.1,287.3,-24.8
13.19379714,-59.64169111,14,-0.1,287.5,-24.8
13.19379715,-59.64169109,14,0.4,287.4,-24.8
13.19379717,-59.64169104,14,0,287.5,-24.8
13.19379714,-59.64169094,14,-0.7,287.6,-24.8
13.19379719,-59.64169091,14,-0.2,287.7,-24.8
13.19379731,-59.64169102,14,0.7,287.6,-24.8
13.19379739,-59.64169102,14,1.5,287.4,-24.8
13.19379739,-59.64169101,14,1.1,287.5,-24.8
13.19379744,-59.64169097,14,0.1,287.5,-24.8
13.19379735,-59.64169105,14,0,287.3,-24.8
13.19379737,-59.64169106,14,0.1,287.2,-24.8
13.19379727,-59.64169087,14,0.8,287.2,-24.8
13.19379727,-59.64169085,14,0.5,287.5,-24.8
13.19379731,-59.64169079,14,0.6,287.5,-24.8
13.19379733,-59.64169079,14,0.9,287.4,-24.8
13.19379717,-59.64169087,14,1.1,287.6,-24.8
13.19379717,-59.64169086,14,1.1,287.6,-24.8
13.19379716,-59.6416911,14,1.1,287.5,-24.8
13.19379716,-59.64169115,14,1.1,287.4,-24.8
