OSD.latitude,OSD.longitude,OSD.height [ft],OSD.pitch,OSD.yaw [360],GIMBAL.pitch
13.1937852922984,-59.6417420840385,14.1,1,317.3,-42.5
13.1937852359791,-59.6417420269491,14.1,1,316.3,-42.5
13.1937852494464,-59.6417420139966,14.1,0.6,315.2,-42.5
13.1937850901866,-59.641742055177,14.4,1.3,313.8,-42.5
13.1937850805744,-59.6417420679183,14.1,1.3,311.7,-42.5
13.1937849297444,-59.6417420519389,14.1,1.2,309.5,-42.5
13.1937848807414,-59.6417420478561,14.1,1,307,-42.5
13.1937849112227,-59.6417419100952,14.1,0,304.4,-42.5
13.1937848517508,-59.6417418786995,14.1,0,301.7,-42.5
13.1937847157246,-59.6417418349849,14.1,-0.1,298.9,-42.5
13.1937846979909,-59.6417418361816,14.1,-0.2,296.3,-42.5
13.1937847669036,-59.6417419887252,14.1,1.3,293.3,-42.5
13.1937847398149,-59.6417420692558,14.1,1.3,291.9,-42.5
13.193784706952,-59.6417421144487,14.1,2.5,291.7,-42.5
13.1937847456233,-59.6417421981471,14.1,4.1,290.8,-42.5
13.1937847451264,-59.6417422250375,14.1,5.7,290.3,-42.5
13.1937847531965,-59.6417422908558,14.1,15.2,290.5,-42.5
13.193784694804,-59.6417421973727,14.1,22,291.3,-42.5
13.1937845972434,-59.6417418953125,14.1,25.6,291.5,-42.5
13.1937842861084,-59.6417412015101,14.1,30.4,291.4,-42.5
13.1937839093505,-59.641740072955,14.1,30.5,290.9,-42.5
13.1937830080031,-59.641738437775,14.1,26.9,291.1,-42.5
13.1937821150342,-59.6417364646338,14.1,25,291.7,-42.5
13.1937811527585,-59.6417344793849,14.1,28.2,292.6,-42.5
13.1937799446281,-59.6417316839724,14.1,27.7,292.2,-42.5
13.1937788076892,-59.6417286518957,14.1,26.2,291.1,-42.5
13.193777681716,-59.6417256398109,14.1,25,290.7,-42.5
13.1937766128501,-59.6417227553502,14.1,25.3,291.4,-42.5
13.1937750125584,-59.6417184899722,14.1,29.1,291.9,-42.5
13.1937735815327,-59.6417147135503,14.1,27.2,291.9,-42.5
13.1937720272284,-59.6417105404588,14.1,14.8,291,-42.5
13.1937703984601,-59.6417070456125,14.4,-2.1,289.9,-42.5
13.1937685648557,-59.6417023556185,14.4,-9.6,290.2,-42.5
13.1937671846664,-59.6416989555225,14.4,-15.9,290.2,-42.5
13.1937656052437,-59.6416950085361,14.4,-26.9,290.4,-42.5
13.1937645100773,-59.6416919643517,14.4,-24.3,289.7,-42.5
13.193763404562,-59.6416894372104,14.4,-13,288.8,-42.5
13.1937624954529,-59.6416871447625,14.4,-1,290.6,-42.5
13.1937616603796,-59.6416850849664,14.4,0.5,291.3,-42.5
13.1937611823944,-59.6416832226252,14.4,-2.2,290.6,-42.5
13.1937602010829,-59.6416805658888,14.4,-5.1,289.8,-42.5
13.1937595823082,-59.6416788125878,14.4,-8,289.5,-42.5
13.1937590394711,-59.6416770302141,14.4,-6.4,290.1,-42.5
13.1937587479031,-59.6416752025067,14.4,-4,289.8,-42.5
13.1937582221314,-59.6416733217223,14.4,-6.1,290.1,-42.5
13.1937574794784,-59.6416720380894,14.4,-8.6,290.2,-42.5
13.1937569558827,-59.6416705589023,14.4,-11.6,290,-42.5
13.193756531441,-59.6416696030234,14.4,-13.3,290,-42.5
13.1937561898419,-59.6416688305207,14.4,-13.7,290,-42.5
13.1937559772612,-59.6416681881059,14.4,-15.1,290,-42.5
13.193755770112,-59.6416677990388,14.4,-17.1,289.9,-42.5
13.1937556919985,-59.6416678396561,14.4,-18.3,289.8,-42.5
13.1937556532929,-59.641667983682,14.4,-18.5,289.8,-42.5
13.1937556752415,-59.6416683600078,14.4,-17.6,290.1,-42.5
13.1937558499562,-59.6416689414615,14.4,-17.4,290,-42.5
13.1937562878308,-59.6416698297622,14.4,-19,290,-42.5
13.1937567134033,-59.6416709457168,14.4,-19.7,290,-42.5
13.1937571539337,-59.6416722977725,14.4,-18.4,290.1,-42.5
13.1937578516273,-59.6416742357168,14.4,-16.5,290.3,-42.5
13.1937585060919,-59.6416757169454,14.4,-14.3,290.5,-42.5
13.1937592376593,-59.641677679809,14.4,-9.9,290.6,-42.5
13.1937600797404,-59.6416795209617,14.4,-2.2,291,-42.5
13.1937609774897,-59.6416816660752,14.4,-1.1,290.6,-42.5
13.1937615814264,-59.6416836389348,14.4,-1.6,290,-42.5
13.1937623203785,-59.6416859009725,14.4,6.6,290.6,-42.5
13.1937628444368,-59.6416877024934,14.4,17.5,291.1,-42.5
13.1937633059049,-59.6416893454872,14.4,20.4,291.3,-42.5
13.1937636373778,-59.6416908852131,14.4,19,292.1,-42.5
13.1937637963122,-59.6416918696719,14.4,15.4,291.9,-42.5
13.1937636691613,-59.6416923918539,14.4,12.3,291,-42.5
13.1937636433576,-59.6416928775718,14.4,8.6,290.7,-42.5
13.193763543364,-59.641692891369,14.4,5.4,290.5,-42.5
13.1937635123173,-59.6416930116018,14.4,2.8,290.5,-42.5
13.1937634545246,-59.6416930555276,14.4,2.3,290.5,-42.5
13.1937633138379,-59.6416930379291,14.4,2,290.6,-42.5
13.1937633217366,-59.6416928760935,14.4,0.3,290.6,-42.5
13.1937631817353,-59.6416927866229,14.4,-0.9,290.3,-42.5
13.1937630411343,-59.6416929317751,14.4,-0.6,290.2,-42.5
13.1937628635411,-59.6416928577911,14.4,-2.2,290.1,-42.5
13.1937624820028,-59.6416930992422,14.4,-3.3,290.3,-42.5
13.1937623449485,-59.6416931096605,14.4,-2.7,290.3,-42.5
13.1937624866118,-59.6416929971711,14.4,-1.3,290,-42.5
13.1937624050543,-59.6416929966079,14.4,-1.2,290.3,-42.5
13.1937624651773,-59.6416930786872,14.4,-1.1,290,-42.5
13.19376244071,-59.6416931332425,14.4,0.4,290.3,-42.5
13.1937625521662,-59.6416931721703,14.4,0.2,290.4,-42.5
13.1937625701397,-59.6416931871642,14.4,-0.4,290.2,-42.5
13.1937625336616,-59.6416933280224,14.4,-0.9,290.2,-42.5
13.1937625345526,-59.6416934048926,14.4,0.1,290.7,-42.5
13.1937624236789,-59.6416933967973,14.4,1,290.5,-42.5
13.1937624349188,-59.6416934322054,14.4,1,290.5,-42.5
13.1937624022101,-59.6416936103724,14.4,0.3,290.7,-42.5
13.1937624028098,-59.641693649089,14.4,0.5,290.8,-42.5
13.1937625374653,-59.6416936772466,14.4,0.6,290.7,-42.5
13.1937625537254,-59.6416936847083,14.4,-0.3,290.6,-42.5
13.1937625631491,-59.6416936919589,14.4,0.4,290.7,-42.5
13.1937625919341,-59.6416937255368,14.4,1.4,290.4,-42.5
13.1937626324387,-59.6416936272669,14.4,0.7,289.9,-42.5
13.1937626710243,-59.6416936264222,14.4,0.4,290.2,-42.5
13.1937628588636,-59.6416938019846,14.4,2,290.2,-42.5
13.193762889619,-59.6416938535833,14.4,3.8,290.3,-42.5
13.1937628924632,-59.6416938638608,14.4,2.8,290.5,-42.5
13.1937629146174,-59.641693852809,14.4,0.8,290.4,-42.5
13.1937631488039,-59.64169402992,14.4,1,290.2,-42.5
13.1937632243302,-59.6416940862352,14.4,3,290.3,-42.5
13.1937631764409,-59.6416939739569,14.4,3,290.3,-42.5
13.1937631381466,-59.6416939339028,14.4,1.7,290.3,-42.5
13.1937631327837,-59.641693954669,14.4,1.9,290.5,-42.5
13.1937631246793,-59.6416939392527,14.4,3.1,290.4,-42.5
13.1937630448695,-59.6416937209612,14.4,1.8,290.2,-42.5
13.1937630098991,-59.641693652116,14.4,0.3,290.3,-42.5
13.1937631514768,-59.6416939321429,14.4,1.2,290.4,-42.5
13.1937631775375,-59.6416939232733,14.4,1.4,290.2,-42.5
13.1937631202759,-59.6416939672695,14.4,1.2,290.3,-42.5
13.19376313167,-59.6416939754352,14.4,1.6,290.5,-42.5
13.1937631166092,-59.6416939947935,14.4,2.7,290.4,-42.5
13.1937631043927,-59.6416939948639,14.4,2,290.3,-42.5
13.1937629322482,-59.6416940315391,14.4,0.6,290.2,-42.5
13.193762912647,-59.6416940069012,14.4,0.9,290.5,-42.5
13.1937630378103,-59.6416940768024,14.4,1.4,290.5,-42.5
13.1937630599131,-59.6416940841234,14.4,1.8,290.3,-42.5
13.1937630137714,-59.6416940433653,14.4,1.6,290.2,-42.5
13.1937630189801,-59.6416940265412,14.4,1.4,290.4,-42.5
13.1937630829753,-59.6416939783213,14.4,1.4,290.5,-42.5
13.1937631349425,-59.6416939908514,14.4,2.3,290.5,-42.5
13.1937630064381,-59.6416938687884,14.4,2.1,290.4,-42.5
13.1937630066951,-59.6416938067714,14.4,1.4,290.5,-42.5
13.1937631507743,-59.64169389589,14.4,1.3,290.5,-42.5
13.1937631889658,-59.6416938711114,14.4,1.2,290.4,-42.5
13.1937633029407,-59.6416940966535,14.4,1.2,290.3,-42.5
13.193763377953,-59.6416941341734,14.4,3,290.4,-42.5
13.1937634178066,-59.6416941545876,14.4,3.7,290.5,-42.5
13.1937634655588,-59.6416941892918,14.4,3.5,290.4,-42.5
13.1937634341352,-59.6416940264004,14.4,3.3,290.1,-42.5
13.1937634109358,-59.6416939707188,14.4,2.7,290.3,-42.5
13.1937634164701,-59.6416940683551,14.4,1.2,290.4,-42.5
13.1937634241461,-59.6416940031,14.4,0.2,290.3,-42.5
13.1937634005184,-59.6416941676105,14.4,0.5,290.4,-42.5
13.1937633867941,-59.6416941909813,14.4,1.8,290.5,-42.5
13.1937632988286,-59.64169406744,14.4,1.8,290.5,-42.5
13.1937632940482,-59.6416940786326,14.4,2.2,290.6,-42.5
13.1937633310746,-59.6416941517015,14.4,3.3,290.7,-42.5
13.1937633471634,-59.641694123544,14.4,2.7,290.6,-42.5
13.1937633447475,-59.6416941671178,14.4,1.7,290.4,-42.5
13.1937633872396,-59.6416941581074,14.4,1.6,290.3,-42.5
13.1937634954232,-59.6416940583592,14.1,2,290.4,-42.5
13.1937635489325,-59.641694065469,14.1,3.7,290.6,-42.5
13.1937634467115,-59.6416939877541,14.1,4.7,291.1,-42.5
13.1937634149281,-59.6416939334804,14.1,3.1,290.5,-42.5
13.1937633169905,-59.6416938609747,14.1,1.8,290.1,-42.5
13.1937632369922,-59.6416937917071,14.1,0.9,290.3,-42.5
13.1937632443941,-59.641693898213,14.1,0.4,290.4,-42.5
13.1937632412928,-59.6416938487261,14.1,0.1,290.4,-42.5
13.1937633221478,-59.6416937955787,14.1,0.4,290.3,-42.5
13.1937633191494,-59.6416937735454,14.1,1.6,290.4,-42.5
13.1937633287101,-59.6416938006471,14.1,1.6,290.5,-42.5
13.1937633626696,-59.6416937434872,14.1,-0.4,290.6,-42.5
13.1937633926368,-59.6416938685772,14.1,-0.4,290.5,-42.5
13.193763459185,-59.6416939096169,14.1,2.2,290.4,-42.5
13.1937634843376,-59.6416938983538,14.1,3.8,290.5,-42.5
13.1937635261786,-59.641693905182,14.1,2.7,290.6,-42.5
13.1937636328716,-59.6416941050304,14.1,2,290.5,-42.5
13.193763709683,-59.6416941163638,14.1,2.6,290.5,-42.5
13.1937636682018,-59.6416940889805,14.1,3.2,290.4,-42.5
13.1937636873404,-59.6416940946824,14.1,3,290.6,-42.5
13.1937636129277,-59.6416940673696,14.1,2.6,290.6,-42.5
13.1937635253048,-59.6416940230918,14.1,2.4,290.5,-42.5
13.1937634409888,-59.6416940111249,14.1,1.9,290.3,-42.5
13.1937634056757,-59.641693965932,14.1,1.1,290.2,-42.5
13.1937633298067,-59.6416939836713,14.1,0.3,290.2,-42.5
13.19376329888,-59.6416939608636,14.1,0.5,290.4,-42.5
13.1937632948706,-59.6416939611452,14.1,2.2,290.5,-42.5
13.1937633141463,-59.6416939767023,14.1,3.4,290.5,-42.5
13.1937633027008,-59.6416938924408,14.1,2.6,290.4,-42.5
13.1937632905186,-59.6416938468255,14.1,1.5,290.4,-42.5
13.1937633764452,-59.641693981841,14.1,2.1,290.3,-42.5
13.193763424266,-59.6416940046486,14.1,3.3,290.5,-42.5
13.1937632981946,-59.64169406744,14.1,3.5,290.5,-42.5
13.1937632782507,-59.641694051179,14.1,2.6,290.5,-42.5
13.1937633111993,-59.6416942274454,14.1,2.2,290.5,-42.5
13.1937633179843,-59.6416942562365,14.1,3,290.5,-42.5
13.1937633449188,-59.6416942865058,14.1,2.9,290.4,-42.5
13.193763363492,-59.6416942706672,14.1,2.3,290.5,-42.5
13.1937633372771,-59.6416942867874,14.1,2.4,290.5,-42.5
13.1937633605107,-59.6416942863651,14.1,3,290.4,-42.5
13.1937633333877,-59.6416942441287,14.1,3,290.5,-42.5
13.1937633496992,-59.6416942067495,14.1,2.2,290.4,-42.5
13.1937633068301,-59.6416940398456,14.1,2.2,290.4,-42.5
13.1937633146432,-59.6416939685366,14.1,2.3,290.5,-42.5
13.1937633309375,-59.6416939978908,14.1,1.7,290.5,-42.5
13.1937633452786,-59.6416939678326,14.1,2.1,290.4,-42.5
13.1937631680795,-59.6416939973277,14.1,2.4,290.4,-42.5
13.1937631600437,-59.6416939518532,14.1,2.3,290.4,-42.5
13.1937633169391,-59.641694058148,14.1,2.2,290.3,-42.5
13.1937633310575,-59.6416940435061,14.1,2.3,290.4,-42.5
13.1937632812491,-59.6416940751833,14.1,2.1,290.3,-42.5
13.1937633318285,-59.6416940690591,14.1,2.3,290.3,-42.5
13.1937630703648,-59.6416940366075,14.1,2.6,290.4,-42.5
13.1937630323274,-59.6416939950047,14.1,2.7,290.5,-42.5
13.1937630758648,-59.6416937537648,14.1,2.4,290.5,-42.5
13.1937630834551,-59.6416936811182,14.1,1.8,290.3,-42.5
13.1937629560986,-59.6416935938298,14.1,1.1,290.3,-42.5
13.1937629488338,-59.6416934829594,14.1,0.7,290.3,-42.5
13.1937631055578,-59.6416937057561,14.1,0.3,290.2,-42.5
13.1937631341886,-59.6416936771058,14.1,0.6,290.3,-42.5
13.1937632074362,-59.6416936156519,14.1,0.9,290.3,-42.5
13.1937632782164,-59.6416935811589,14.1,0.4,290.2,-42.5
13.1937631167634,-59.641693533995,14.1,0.3,290.3,-42.5
13.1937631409565,-59.6416935299825,14.1,0.8,290.5,-42.5
13.1937631454456,-59.6416934946448,14.1,1.9,290.3,-42.5
13.193763190268,-59.6416934626156,14.1,2.7,290.4,-42.5
13.1937630890579,-59.6416936758387,14.1,2.2,290.2,-42.5
13.1937630932557,-59.6416936554949,14.1,1.2,290.2,-42.5
13.1937630846545,-59.641693771152,14.1,0.7,290.3,-42.5
13.193763087533,-59.6416937572141,14.1,0.5,290.5,-42.5
13.1937631552634,-59.6416939041965,14.1,0.1,290.4,-42.5
13.1937631991605,-59.6416939141221,14.1,0.6,290.3,-42.5
13.1937630018119,-59.6416938522458,14.1,1.2,290.1,-42.5
13.193763022167,-59.6416938326763,14.1,1,290.1,-42.5
13.1937630371249,-59.6416937960011,14.1,0.3,290.3,-42.5
13.1937630885267,-59.6416937683363,14.1,0.9,290.3,-42.5
13.1937631414192,-59.6416939070827,14.1,1.8,290.2,-42.5
13.1937631950826,-59.6416939281305,14.1,1.8,290.4,-42.5
13.1937631967617,-59.6416939699444,14.1,2,290.3,-42.5
13.1937632754407,-59.6416939657208,14.1,2.5,290.3,-42.5
13.1937633652739,-59.6416939381264,14.1,1.9,290.4,-42.5
13.1937635910477,-59.6416939139813,14.1,1,290.4,-42.5
13.1937636820631,-59.6416939311574,14.1,2.2,290.3,-42.5
13.1937637785614,-59.6416939115879,14.1,2.8,290.4,-42.5
13.1937637628496,-59.6416938074049,14.1,2,290.4,-42.5
13.1937638270847,-59.6416937662949,14.1,1.3,290.3,-42.5
13.193763782605,-59.6416936633086,14.1,1.3,290.5,-42.5
13.1937638099679,-59.6416936030514,14.1,0.9,290.4,-42.5
13.1937636288623,-59.6416936710519,14.1,0.1,290.4,-42.5
13.1937636532096,-59.6416936252959,14.1,0.7,290.3,-42.5
13.1937636112315,-59.641693607979,14.1,1.6,290.5,-42.5
13.1937636093125,-59.6416935889726,14.1,2.3,290.8,-42.5
13.1937636331972,-59.641693485564,14.1,1.5,290.4,-42.5
13.1937636716971,-59.6416934160852,14.1,0.3,290.1,-42.5
13.193763651599,-59.6416933459025,14.1,0.5,290.1,-42.5
13.1937636230025,-59.6416933154923,14.1,0.5,290.4,-42.5
13.1937634187146,-59.6416934071452,14.1,0,290.6,-42.5
13.1937633775761,-59.6416933887724,14.1,0,290.6,-42.5
13.1937633210684,-59.6416934713444,14.1,0.4,290.6,-42.5
13.1937632864579,-59.6416934887317,14.1,0.9,290.6,-42.5
13.1937632373349,-59.6416934182674,14.1,0.9,290.6,-42.5
13.1937632270717,-59.6416933909546,14.1,0,290.6,-42.5
13.1937632376262,-59.6416936141032,14.1,0.6,290.5,-42.5
13.1937632575358,-59.6416936602112,14.1,1.5,290.5,-42.5
13.1937631209441,-59.6416935783431,14.1,0.7,290.5,-42.5
13.1937630626888,-59.6416935815813,14.1,0,290.6,-42.5
13.1937631156155,-59.6416936393043,14.1,0.5,290.3,-42.5
13.1937631185454,-59.6416936363477,14.1,0.9,290.1,-42.5
13.1937629008931,-59.6416937870611,14.1,0.8,290.2,-42.5
13.1937628337452,-59.641693809376,14.1,0,290.5,-42.5
13.193762805834,-59.6416938287343,14.1,0.4,290.5,-42.5
13.1937627912531,-59.6416938802626,14.1,2,290.4,-42.5
13.1937627745989,-59.6416938986354,14.1,2.1,290.2,-42.5
13.1937627799618,-59.6416938801922,14.1,1,290.2,-42.5
13.1937626637938,-59.6416938220468,14.1,0.3,290.2,-42.5
13.1937626367393,-59.6416938028997,14.1,0,290.2,-42.5
13.1937625716818,-59.6416936840044,14.1,1.1,290.3,-42.5
13.1937626213359,-59.6416936509193,14.1,1.6,290.3,-42.5
13.1937626458717,-59.641693725748,14.1,1.4,290.1,-42.5
13.1937626975648,-59.6416937083607,14.1,1,290.3,-42.5
13.1937625211367,-59.6416937202573,14.1,1.2,290.4,-42.5
13.1937625634746,-59.6416937049818,14.1,1.5,290.3,-42.5
13.1937624688611,-59.6416936780913,14.1,1.3,290.5,-42.5
13.1937624947333,-59.6416936411345,14.1,0.8,290.6,-42.5
13.1937626728234,-59.6416939838824,14.1,1.3,290.5,-42.5
13.193762707708,-59.6416940153485,14.1,1.8,290.3,-42.5
13.1937627670086,-59.6416939633978,14.1,1.5,290.2,-42.5
13.1937628255552,-59.6416939362962,14.1,1,290.2,-42.5
13.1937627598123,-59.641693920176,14.1,0.5,290.3,-42.5
13.1937628240988,-59.6416938950453,14.1,0.7,290.2,-42.5
13.1937627197189,-59.6416939695925,14.1,1.2,290.2,-42.5
13.19376273968,-59.6416939805739,14.1,1.6,290.4,-42.5
13.193762691328,-59.6416940545579,14.1,1.5,290.3,-42.5
13.1937628515474,-59.6416940119696,14.1,0.9,290.2,-42.5
13.1937628657857,-59.6416940423094,14.1,0.5,290.2,-42.5
13.193762969206,-59.6416941232624,14.1,0.9,290.3,-42.5
13.1937630084085,-59.641694208791,14.1,1.2,290.3,-42.5
13.1937630833523,-59.6416942144225,14.1,1.5,290.3,-42.5
13.193763091508,-59.6416941679625,14.1,1.2,290.4,-42.5
13.1937631492151,-59.6416941535318,14.1,1.3,290.4,-42.5
13.1937630412371,-59.6416941467739,14.1,1.3,290.4,-42.5
13.1937630746996,-59.6416941198835,14.1,1.1,290.3,-42.5
13.1937630301514,-59.6416940875023,14.1,1,290.3,-42.5
13.1937630681716,-59.6416940323134,14.1,0.7,290.4,-42.5
13.1937628636096,-59.6416942027371,14.1,0.8,290.3,-42.5
13.1937628595318,-59.6416942167455,14.1,1.5,290.3,-42.5
13.1937628793557,-59.6416939862758,14.1,1.3,290.3,-42.5
13.193762889876,-59.6416939136293,14.1,0.3,290.2,-42.5
13.1937629176329,-59.6416939352402,14.1,-0.5,290.2,-42.5
13.1937629314086,-59.641693862101,14.1,-0.3,290.1,-42.5
13.1937628655629,-59.6416940344957,14.1,-0.3,290.1,-42.5
13.1937628734103,-59.6416940201353,14.1,-0.2,290.2,-42.5
13.1937628603199,-59.6416940860944,14.1,0,290.2,-42.5
13.1937630515003,-59.6416942232217,13.7,0.6,290.2,-42.5
13.193763039558,-59.6416942605305,13.1,0.5,290.1,-42.5
13.1937631810328,-59.6416942547582,12.7,0.5,290,-42.5
13.1937632705062,-59.641694443625,12.4,-0.2,290,-42.5
13.1937634162816,-59.6416945824418,11.8,0.6,290,-42.5
13.1937632479922,-59.6416943012886,11.4,4.5,289.9,-42.5
13.1937632005826,-59.6416942706672,11.1,1.9,290.4,-42.5
13.1937629894926,-59.6416944988842,10.8,0.8,291.2,-42.4
13.1937629897325,-59.6416945811043,10.4,4.2,291,-41.9
13.193763021139,-59.6416941717638,10.4,4,290.5,-40.8
13.1937630675034,-59.6416940071124,10.4,1.5,290.3,-39.4
13.1937632562507,-59.6416941489562,10.4,0.8,290.4,-37.8
13.1937633602366,-59.6416940944009,10.4,1.3,290.3,-36.1
13.1937631450173,-59.6416941681033,10.4,0.5,290.4,-34.4
13.1937631829689,-59.6416941171381,10.4,0.3,290.5,-32.7
13.1937631514425,-59.641694164302,10.4,1.3,290.5,-31
13.1937631442291,-59.641694171271,10.4,1.5,290.4,-29.3
13.1937633748175,-59.6416942950235,10.4,1.1,290.5,-27.7
13.1937634479965,-59.6416943048786,10.4,1.8,290.6,-26.4
13.193763493093,-59.6416943977986,10.4,2.3,290.5,-25.5
13.1937635541584,-59.6416944603084,10.4,2.2,290.4,-25
13.19376349885,-59.6416944690372,10.4,2.5,290.5,-24.8
13.1937635603951,-59.6416944853686,10.1,2.7,290.5,-24.8
13.1937634686429,-59.6416942660916,9.8,1.8,290.5,-24.8
13.1937634472084,-59.6416941987246,9.1,1.1,290.5,-24.8
13.193763495132,-59.641694231317,8.8,0.9,290.4,-24.8
13.1937634706476,-59.6416942236441,8.2,1,290.2,-24.8
13.1937634964513,-59.6416941929523,7.2,0.3,289.7,-24.8
13.1937635178516,-59.6416941588113,6.5,0,289.7,-24.8
13.1937632293162,-59.6416942408906,5.9,0.9,289.2,-24.8
13.1937632120966,-59.6416942338512,5.2,2.6,290.1,-24.8
13.1937632524127,-59.6416943979394,4.9,4.7,290.3,-24.8
13.1937631326295,-59.6416943507051,4.2,2.1,290.6,-24.8
13.1937628018932,-59.6416942539135,3.9,0.8,290.5,-24.8
13.1937627272064,-59.6416940922186,3.6,-1.8,290.6,-24.8
13.1937626169154,-59.6416940004954,3.6,-2.1,290.6,-24.8
13.1937626240773,-59.6416938704778,3.6,-1.3,290.4,-24.8
13.1937628330599,-59.6416934678247,3.6,-1.3,290.4,-24.8
13.1937629200145,-59.6416932598811,3.6,-2.1,290.6,-24.8
13.1937629680238,-59.6416931080414,3.6,-2.7,290.5,-24.8
13.1937630658414,-59.6416929573281,3.6,-2.8,290.2,-24.8
13.1937631962477,-59.641693369414,3.6,-2.1,290.4,-24.8
13.1937633098799,-59.641693448396,3.6,-0.4,290.5,-24.8
13.1937629480799,-59.641693409609,3.6,0.4,290.5,-24.8
13.1937629267482,-59.6416934399487,3.6,0.1,290.4,-24.8
13.1937629051766,-59.6416935205498,3.6,-0.4,290.4,-24.8
13.1937628767856,-59.6416935744011,3.6,0.4,290.3,-24.8
13.193762917256,-59.641693538641,3.9,0.6,290.5,-24.8
13.1937628348932,-59.6416936264222,3.9,-0.1,290.2,-24.8
13.1937626789916,-59.6416936947043,4.2,-0.7,289.8,-24.8
13.1937625693687,-59.6416937194125,4.2,-1.4,290.2,-24.8
13.1937625936989,-59.6416934527604,4.5,-0.6,290.5,-24.8
13.1937628562078,-59.641693224473,4.9,1.8,290.5,-24.8
13.1937628377032,-59.6416931019172,5.2,1.4,290.4,-24.8
13.1937629258058,-59.6416930130801,5.5,0.1,290.3,-24.8
13.1937630533508,-59.6416928715179,5.9,-0.4,290.5,-24.8
13.1937631960935,-59.6416927260137,6.2,-1.9,290.2,-24.8
13.1937629911203,-59.6416932040588,6.5,-1.3,290.1,-24.8
13.1937629915487,-59.641693315985,6.8,0.2,290.4,-24.8
13.1937632249642,-59.6416932549535,7.2,2,290.7,-24.8
13.1937632877772,-59.6416933501965,7.5,1.9,290.6,-24.8
13.1937634126321,-59.6416934105241,7.5,1.8,290.4,-24.8
13.1937634737146,-59.6416934816219,7.5,1.6,290.6,-24.8
13.1937634850915,-59.6416939043373,7.5,2.3,290.6,-24.8
13.1937635135681,-59.6416940155597,7.5,2.6,290.6,-24.8
13.19376339752,-59.6416945337292,7.5,2.7,290.6,-24.8
13.1937634254826,-59.6416946603679,7.5,2.1,290.5,-24.8
13.1937635327581,-59.6416947779961,7.5,1.5,290.5,-24.8
13.193763521621,-59.6416948485308,7.5,2.4,290.1,-24.8
13.1937635407939,-59.6416949603867,7.5,1,291.1,-24.8
13.1937635111351,-59.6416950591494,7.5,0.6,290.8,-24.8
13.1937632606542,-59.641695088222,7.5,1,290.2,-24.8
13.1937630213789,-59.6416950105072,7.5,-1.6,290.5,-24.8
13.1937628584009,-59.6416949981178,7.5,-4.3,290.4,-24.8
13.1937627807328,-59.6416949089992,7.5,-2.9,290,-24.8
13.1937627937375,-59.6416949031565,7.5,-2,290.4,-24.8
13.1937627841425,-59.6416948505018,7.5,-1.7,290.3,-24.8
13.1937629756313,-59.6416949642584,7.5,-0.1,290.6,-24.8
13.1937630424536,-59.6416949093511,7.5,-0.5,290.6,-24.8
13.1937629549506,-59.6416949011854,7.5,-2,290.5,-24.8
13.1937630003727,-59.6416948100957,7.5,-3,290.2,-24.8
13.1937629178385,-59.6416945873694,7.5,-1.7,290.6,-24.8
13.1937628985629,-59.641694495435,7.5,1.2,290.6,-24.8
13.1937628808464,-59.6416945898332,7.5,-1.6,290.2,-24.8
13.1937628985115,-59.6416944773437,7.5,-5.3,290.1,-24.8
13.1937629762481,-59.6416944981803,7.5,-5.7,289.9,-24.8
13.1937630930672,-59.6416944918449,7.5,-3.1,289.9,-24.8
13.1937629277762,-59.6416944933935,7.5,-0.6,289.8,-24.8
13.1937629361033,-59.6416945216919,7.5,-1.6,290,-24.8
13.1937630440813,-59.6416944535506,7.5,-2.2,289.9,-24.8
13.19376315343,-59.6416944805818,7.5,-1.3,289.9,-24.8
13.1937632691697,-59.6416948571892,7.5,1.9,290.3,-24.8
13.1937633694032,-59.641695012619,7.5,3.5,290.6,-24.8
13.1937632809579,-59.6416950573895,7.5,2.8,290.8,-24.8
13.1937633886789,-59.6416951272203,7.5,3,290.6,-24.8
13.1937635548437,-59.6416951322182,7.5,2.9,290.4,-24.8
13.1937638163074,-59.641695091249,7.5,1.8,290.4,-24.8
13.193764009938,-59.6416949527138,7.5,1.9,290.4,-24.8
13.1937643244312,-59.6416948279054,7.5,2,290.4,-24.8
13.1937648106236,-59.6416946288314,7.5,1.9,290.5,-24.8
13.1937652774888,-59.6416944055419,7.5,1.1,290.3,-24.8
13.1937655278155,-59.6416941721157,7.5,0.3,290.1,-24.8
13.1937660404798,-59.641693938056,7.5,0.9,290.3,-24.8
13.1937664075056,-59.6416938612562,7.5,1.1,290.3,-24.8
13.1937667939614,-59.6416936816814,7.5,0.3,290.1,-24.8
13.1937668754161,-59.6416938517531,7.5,0.4,290.1,-24.8
13.1937670493597,-59.6416938330987,7.5,1.2,290.4,-24.8
13.1937669461792,-59.641693855132,7.5,1.4,290.4,-24.8
13.1937669513879,-59.6416938318316,7.5,1.1,290.4,-24.8
13.1937668268414,-59.641693930735,7.5,0.4,290.3,-24.8
13.1937667748913,-59.6416939950047,7.5,0.6,290.5,-24.8
13.1937667003073,-59.6416941095356,7.5,2.2,290.6,-24.8
13.1937667125067,-59.6416940901772,7.5,3.8,290.9,-24.8
13.1937665648122,-59.6416941144631,7.5,3.3,290.6,-24.8
13.1937665145584,-59.6416941243887,7.5,1.7,290.3,-24.8
13.1937666311034,-59.6416943480301,7.5,1.1,290.4,-24.8
13.19376666777,-59.6416944508756,7.5,1.9,290.5,-24.8
13.1937664605352,-59.6416944601676,7.5,3.8,290.6,-24.8
13.1937664529791,-59.6416945283793,7.5,4.3,290.7,-24.8
13.1937665236051,-59.6416944875508,7.5,3.8,290.6,-24.8
13.1937664907937,-59.6416945485824,7.5,3.9,290.4,-24.8
13.1937663406319,-59.6416947699712,7.5,3.1,290.8,-24.8
13.1937665736876,-59.6416947539918,7.5,2.6,290.6,-24.8
13.1937666998961,-59.6416948036899,7.5,3.3,290.6,-24.8
13.1937668715267,-59.6416948100957,7.5,4.1,290.7,-24.8
13.1937668636108,-59.6416948652141,7.5,3.7,290.7,-24.8
13.1937670409641,-59.6416948099549,7.5,2.7,290.4,-24.8
13.1937671785324,-59.641694813897,7.5,2.9,290.3,-24.8
13.1937673560399,-59.6416947693376,7.5,2.5,290.5,-24.8
13.1937675107764,-59.6416946479786,7.5,2.6,290.4,-24.8
13.1937677014942,-59.6416945789925,7.5,3.3,290.3,-24.8
13.1937680211447,-59.6416945085986,7.5,3.1,289.9,-24.8
13.1937682379403,-59.641694412159,7.5,3.3,289.7,-24.8
13.1937684793574,-59.6416946847242,7.5,2.8,289.4,-24.8
13.1937687414208,-59.6416946537508,7.5,2.1,289,-24.8
13.1937685662949,-59.641694513667,7.5,2.7,288.5,-24.8
13.1937687187183,-59.6416944156787,7.5,2.4,288.4,-24.8
13.1937687626155,-59.6416947889775,7.5,1.6,288.2,-24.8
13.1937689265357,-59.6416948112924,7.5,1.1,287.9,-24.8
13.1937692909401,-59.6416942957978,7.5,2.6,287.7,-24.8
13.1937696097169,-59.6416941870392,7.5,2.6,287.7,-24.8
13.1937699229079,-59.641694156981,7.5,3,287.8,-24.8
13.1937702586472,-59.6416941068606,7.5,1.3,287.3,-24.8
13.1937705648305,-59.6416939390415,7.5,1.9,287.5,-24.8
13.1937710237799,-59.641693936085,7.5,1.5,287.6,-24.8
13.1937715100579,-59.6416943263488,7.5,8,288,-24.8
13.1937719890026,-59.6416944915633,7.5,12.7,288.6,-24.8
13.1937725199488,-59.6416944535506,7.5,8.3,288.1,-24.8
13.1937729771677,-59.6416943739351,7.5,3.2,287.6,-24.8
13.1937731960879,-59.6416944175089,7.5,2.1,287.7,-24.8
13.1937737329795,-59.6416944482006,7.5,6.1,287.8,-24.8
13.1937742564381,-59.6416944417244,7.5,7.5,288.2,-24.8
13.1937748476786,-59.6416943624609,7.5,5,288,-24.8
13.1937750196176,-59.641694464884,7.5,4.2,287.4,-24.8
13.1937755068037,-59.641694444329,7.5,5.4,287.6,-24.8
13.1937758900554,-59.6416940768024,7.5,5.1,287.5,-24.8
13.1937763144285,-59.6416939371409,7.5,3.6,287.2,-24.8
13.193776626266,-59.6416939177826,7.5,3.8,287.2,-24.8
13.1937768653185,-59.6416938925112,7.5,4.6,287.4,-24.8
13.1937767452611,-59.6416940343549,7.5,5.3,287.5,-24.8
13.1937768166411,-59.6416940437876,7.5,5.6,287.4,-24.8
13.193776719149,-59.6416941005251,7.5,3.9,287.4,-24.8
13.1937766583236,-59.6416941339622,7.5,3.2,287.6,-24.8
13.1937766436398,-59.6416940779991,7.5,4.2,287.4,-24.8
13.1937765891882,-59.6416940961607,7.5,5.4,287.4,-24.8
13.1937763473428,-59.641693845488,7.8,3,287.4,-24.8
13.1937762686295,-59.6416937866387,7.8,-1.5,287.3,-24.8
13.1937764744765,-59.6416938433058,7.8,1,287.5,-24.8
13.1937762716108,-59.641693972549,7.8,6.8,287.4,-24.8
13.1937761763804,-59.6416939549506,7.8,8.9,287.4,-24.8
13.1937761015908,-59.6416939111655,7.8,4.9,287.4,-24.8
13.1937761203696,-59.6416940245701,8.2,0.6,287.5,-24.8
13.1937760291486,-59.6416939340436,8.2,0.5,287.3,-24.8
13.1937759917281,-59.6416939824746,8.2,3.7,287.6,-24.8
13.1937759677749,-59.6416940384377,8.2,5.4,287.8,-24.8
13.1937757027644,-59.6416940268931,8.2,3.9,287.6,-24.8
13.1937756452115,-59.6416939881765,8.2,2,287.5,-24.8
13.1937757767316,-59.6416942122403,8.2,1.5,287.7,-24.8
13.1937758044885,-59.6416942832677,8.2,3.1,287.6,-24.8
13.1937758443934,-59.6416941880952,8.2,5.6,287.4,-24.8
13.1937759690256,-59.6416941884471,8.2,4.3,287.3,-24.8
13.1937759052189,-59.6416942779178,8.2,3.1,287.3,-24.8
13.1937759529198,-59.6416943070609,8.2,3.3,287.5,-24.8
13.193775845353,-59.6416944265897,8.2,4.1,287.5,-24.8
13.1937758913233,-59.6416944717826,8.2,4.6,287.2,-24.8
13.1937758673872,-59.6416943585892,8.2,5.1,287.6,-24.8
13.1937759339354,-59.6416943486637,8.2,6.1,288,-24.8
13.1937759307827,-59.6416944228588,8.2,3.8,287.6,-24.8
13.193775937722,-59.6416944139188,8.2,1.7,287.1,-24.8
13.1937759080974,-59.641694435037,7.8,2.8,287.2,-24.8
13.1937759078918,-59.6416944255338,7.8,2.8,287.6,-24.8
13.1937758318,-59.641694314241,7.8,2.2,287.7,-24.8
13.1937758637548,-59.641694314593,7.8,2.3,287.5,-24.8
13.1937758430399,-59.6416943177607,7.8,1.6,287.5,-24.8
13.1937758676099,-59.6416943125516,7.8,1.1,287.6,-24.8
13.1937758330165,-59.6416946262268,7.8,4,287.3,-24.8
13.1937758621099,-59.6416946721236,7.8,4.7,287.3,-24.8
13.1937758572268,-59.6416948327626,7.8,2.8,287.5,-24.8
13.1937758675585,-59.6416949000591,7.8,2.6,287.7,-24.8
13.193775732646,-59.6416948526136,7.8,3.6,287.6,-24.8
13.1937757278999,-59.6416948901336,7.8,4.4,287.6,-24.8
13.1937755454921,-59.64169459462,7.8,3.9,287.6,-24.8
13.1937754819081,-59.6416945421765,7.8,2,287.7,-24.8
13.1937754063303,-59.641694582653,7.8,1.3,287.5,-24.8
13.1937754018755,-59.6416945880733,7.8,3.5,287.5,-24.8
13.1937754794579,-59.6416947931308,7.8,3.8,287.3,-24.8
13.1937754601994,-59.6416948364934,7.8,3.1,287.7,-24.8
13.1937752218664,-59.6416950137453,7.8,3.7,288.3,-24.8
13.1937751536563,-59.6416950946279,7.8,5.2,287.8,-24.8
13.1937747714155,-59.6416950378904,7.8,5.5,288.3,-24.8
13.1937746370341,-59.6416950247267,7.8,3.2,288.4,-24.8
13.1937745077757,-59.6416950418324,7.8,1.9,287.9,-24.8
13.1937743587277,-59.641695015294,7.8,-0.1,287.2,-24.8
13.1937740179167,-59.6416949391981,7.8,-0.9,286.8,-24.8
13.1937739808732,-59.6416949475046,7.8,2.5,287.6,-24.8
13.1937740818605,-59.6416949163201,7.8,3.6,287.7,-24.8
13.1937741312234,-59.6416948775331,7.8,2.5,287.5,-24.8
13.1937741617732,-59.6416949445481,7.8,2.8,287.5,-24.8
13.193774222393,-59.6416949372271,7.8,3.9,287.7,-24.8
13.1937742681577,-59.6416950456337,7.8,4.2,287.9,-24.8
13.1937743746108,-59.6416949699603,7.8,2.7,287.5,-24.8
13.1937744255671,-59.6416948764068,7.8,1.5,287.4,-24.8
13.1937744450656,-59.6416948254416,7.8,1.4,287.5,-24.8
13.1937742723556,-59.6416949090696,7.8,0.8,287.6,-24.8
13.1937742869365,-59.6416948658477,7.8,0.7,287.8,-24.8
13.1937744504113,-59.6416948348744,7.8,1.1,287.6,-24.8
13.1937744864097,-59.6416948226258,7.5,1.6,287.5,-24.8
13.1937744589783,-59.64169482516,7.5,0.3,287.4,-24.8
13.193774468145,-59.6416948234002,7.5,2.1,287.6,-24.8
13.1937744862726,-59.6416948392388,7.5,2.4,287.6,-24.8
13.1937745510389,-59.6416948273422,7.5,2.3,287.6,-24.8
13.1937746186494,-59.6416950257826,7.5,1.5,287.3,-24.8
13.193774622316,-59.6416951525621,7.5,3.2,286.9,-24.8
13.1937746507584,-59.6416952812421,7.5,3.6,287.2,-24.8
13.1937747247427,-59.6416953521992,7.5,4,287.3,-24.8
13.1937747607924,-59.6416952513951,7.5,5.5,287.3,-24.8
13.1937748268095,-59.6416952661074,7.5,4.5,288,-24.8
13.1937749640008,-59.6416951279946,7.5,3.3,287.7,-24.8
13.1937750724929,-59.6416950502797,7.5,2,287.7,-24.8
13.1937749907812,-59.6416950849135,7.5,2.2,287.9,-24.8
13.1937748885087,-59.6416952412584,7.5,4.4,287.8,-24.8
13.1937747524825,-59.641695248509,7.5,5.3,287.7,-24.8
13.1937747189,-59.6416954429369,7.5,2.7,287.5,-24.8
13.1937746402553,-59.6416955575382,7.5,1.5,287.3,-24.8
13.1937746687661,-59.6416956287064,7.5,4.7,287.5,-24.8
13.1937748972984,-59.6416957031128,7.5,6.4,287.8,-24.8
13.1937749569759,-59.6416957465458,7.5,4.7,287.3,-24.8
13.1937748689761,-59.6416955626066,7.5,3.7,287.1,-24.8
13.193774881244,-59.6416956256091,7.5,4.8,287.4,-24.8
13.1937748856645,-59.64169561505,7.5,5.9,287.9,-24.8
13.1937748999028,-59.6416955912569,7.5,3.7,287.5,-24.8
13.1937748577533,-59.6416956282841,7.5,2,287.1,-24.8
13.1937748064886,-59.6416956239901,7.5,3.4,287.4,-24.8
13.1937746697085,-59.6416954450488,7.5,3.2,287.9,-24.8
13.1937747250168,-59.6416953340376,7.5,1.8,287.4,-24.8
13.1937745429345,-59.6416954123156,7.5,1.5,287.3,-24.8
13.1937745316947,-59.6416954008414,7.5,3.2,287.7,-24.8
13.1937744747586,-59.6416951455931,7.5,4.2,287.7,-24.8
13.1937744786138,-59.6416950711867,7.5,2.9,287.5,-24.8
13.1937745236417,-59.6416951733987,7.5,1.4,287.5,-24.8
13.1937745815887,-59.6416951933201,7.5,1.9,287.6,-24.8
13.1937747242629,-59.641695428999,7.5,5.3,287.5,-24.8
13.1937748073111,-59.641695437939,7.5,5.3,287.9,-24.8
13.1937747053299,-59.6416953963362,7.5,3.8,287.5,-24.8
13.1937747886522,-59.6416953910566,7.5,4.5,287.3,-24.8
13.1937744657976,-59.6416953063728,7.5,3.4,287.1,-24.8
13.1937744766776,-59.6416952545628,7.8,2,287.5,-24.8
13.1937746773673,-59.6416953320665,7.8,2.6,287.7,-24.8
13.1937747809419,-59.6416953324889,7.8,4.7,287.6,-24.8
13.1937747321274,-59.6416954734879,7.8,5.5,287.5,-24.8
13.1937748593639,-59.6416954514546,7.8,6.5,287.6,-24.8
13.1937747802566,-59.6416954353344,7.8,4.9,287.6,-24.8
13.1937748204014,-59.6416953497354,7.8,2.1,287.6,-24.8
13.1937748652751,-59.6416953486795,7.8,1.6,287.5,-24.8
13.1937749169339,-59.6416952937722,7.8,2.9,287.7,-24.8
13.1937747365651,-59.6416954437113,7.8,3.1,287.7,-24.8
13.193774784917,-59.6416954380094,7.8,3.4,287.8,-24.8
13.1937748112519,-59.6416954947468,7.8,2.7,287.8,-24.8
13.1937748279917,-59.6416955286063,7.8,3.9,287.6,-24.8
13.1937748494091,-59.6416956747441,7.8,5.2,287.4,-24.8
13.1937749082984,-59.6416956888228,7.8,4.7,287.3,-24.8
13.1937750100568,-59.6416958219377,7.8,3.4,287.1,-24.8
13.1937750855832,-59.6416958425631,7.8,4.4,287.2,-24.8
13.1937750143232,-59.6416957547819,7.8,5.1,287.4,-24.8
13.1937750815738,-59.641695712968,7.8,3.5,287.4,-24.8
13.1937750402811,-59.6416957107154,7.8,3.6,287.5,-24.8
13.1937750580832,-59.6416956814315,7.8,4.5,287.7,-24.8
13.1937750065615,-59.6416957252869,7.8,4.5,288,-24.8
13.193774974641,-59.641695711912,7.8,3.8,288.2,-24.8
13.1937748835399,-59.6416957229639,7.8,4.7,288.1,-24.8
13.1937747989154,-59.6416957180363,7.8,6.6,287.8,-24.8
13.1937746218877,-59.6416958638221,7.8,5.1,288,-24.8
13.1937746018753,-59.6416957254277,7.8,2.2,287.6,-24.8
13.193774560651,-59.6416957629476,7.8,3.4,287.5,-24.8
13.1937745624501,-59.6416957568938,7.8,5.5,287.3,-24.8
13.193774414927,-59.6416956037166,7.8,4.4,287.4,-24.8
13.1937743419364,-59.6416954780635,7.8,3,287.6,-24.8
13.1937741835504,-59.6416958018051,7.8,2.5,287.9,-24.8
13.1937741651828,-59.6416958149687,7.8,4,287.8,-24.8
13.1937741017188,-59.6416958763522,7.8,5,287.7,-24.8
13.1937740969041,-59.6416958234864,7.8,3.8,287.7,-24.8
13.1937741963666,-59.6416959497731,7.8,2.6,287.4,-24.8
13.1937742210566,-59.6416959184478,7.8,3.1,287.6,-24.8
13.1937742177326,-59.6416959292884,7.8,2.8,287.8,-24.8
13.1937742563867,-59.641695862555,7.8,1.9,287.5,-24.8
13.1937742599506,-59.6416957939914,7.8,1.1,287.3,-24.8
13.1937743448321,-59.6416957456307,7.8,1.4,287.4,-24.8
13.1937743928585,-59.641695809478,7.8,3.2,287.5,-24.8
13.1937743680143,-59.6416957262724,7.8,3.7,287.5,-24.8
13.1937743616062,-59.6416957452788,7.8,2,287.4,-24.8
13.1937743848741,-59.6416957157837,7.8,1.6,287.6,-24.8
13.1937744660717,-59.6416956809387,7.8,2.3,287.5,-24.8
13.1937744692073,-59.6416957103634,7.8,2.5,287.6,-24.8
13.193774447944,-59.6416956829802,7.8,2.6,287.6,-24.8
13.1937745075187,-59.6416956334932,7.8,2.4,287.5,-24.8
13.1937744673739,-59.6416957965255,7.8,2.6,287.4,-24.8
13.1937745287991,-59.6416958239791,7.8,3.1,287.5,-24.8
13.1937745606682,-59.6416959100005,7.8,3.7,287.6,-24.8
13.1937746046338,-59.6416959297108,7.8,4.2,287.8,-24.8
13.1937747006695,-59.6416958551636,7.8,3.5,287.7,-24.8
13.193774793484,-59.6416958217969,7.8,2.9,287.5,-24.8
13.1937748630991,-59.6416959606841,7.8,3.1,287.5,-24.8
13.1937749554339,-59.6416959615992,7.8,3.8,287.5,-24.8
13.1937747340978,-59.6416959375245,7.8,4,287.5,-24.8
13.193774767646,-59.6416959031019,7.8,3.7,287.7,-24.8
13.1937746932334,-59.6416959359758,7.8,3.7,287.8,-24.8
13.1937747005838,-59.641695899371,7.8,3.4,287.6,-24.8
13.1937746848377,-59.6416958841659,7.8,2.4,287.4,-24.8
13.1937746392958,-59.641695814124,7.8,2.4,287.5,-24.8
13.1937745781105,-59.6416958190516,7.8,3.1,287.5,-24.8
13.193774620517,-59.6416957813908,7.8,3.2,287.5,-24.8
13.1937746390388,-59.641695788923,7.8,3.3,287.4,-24.8
13.1937746752256,-59.6416957395768,7.8,3,287.5,-24.8
13.1937747487644,-59.6416956995227,7.8,2.8,287.6,-24.8
13.1937748211553,-59.6416956517956,7.8,2.7,287.6,-24.8
13.1937749442283,-59.6416957088851,7.8,2.8,287.5,-24.8
13.1937750470318,-59.6416956743921,7.8,3.6,287.5,-24.8
13.1937748489294,-59.6416955635921,7.8,2.9,287.5,-24.8
13.1937748862985,-59.64169550425,7.8,2.1,287.6,-24.8
13.1937749861036,-59.6416955219893,7.8,2.2,287.6,-24.8
13.1937750534913,-59.6416955167098,7.8,3.4,287.6,-24.8
13.1937750620926,-59.6416954973514,7.8,3.8,287.6,-24.8
13.1937750860287,-59.6416954562414,7.8,3.2,287.4,-24.8
13.1937748784854,-59.6416956831209,7.8,3.2,287.6,-24.8
13.1937748644013,-59.641695698326,7.8,3.3,287.8,-24.8
13.1937748714948,-59.6416958222897,7.8,2.8,287.8,-24.8
13.1937748891256,-59.6416958343974,7.8,3.3,287.5,-24.8
13.1937749361925,-59.6416956231453,7.8,3.6,287.7,-24.8
13.1937749609853,-59.641695587526,7.8,3.1,287.6,-24.8
13.1937749337766,-59.641695583584,7.8,2.6,287.5,-24.8
13.1937749475694,-59.6416955488094,7.8,2.7,287.5,-24.8
13.1937747882924,-59.6416956709428,7.8,2.8,287.6,-24.8
13.1937746489764,-59.6416955325484,7.8,2.6,287.5,-24.8
13.193774578813,-59.6416955074881,7.8,2.8,287.5,-24.8
13.1937746152569,-59.6416954723616,7.8,3.3,287.7,-24.8
13.193774652883,-59.6416955320556,7.8,2.7,287.7,-24.8
13.193774783889,-59.6416955147387,7.8,3.5,288.1,-24.8
13.1937752077824,-59.6416954455415,7.8,4.8,288.2,-24.8
13.193775713079,-59.6416952817349,7.8,4.1,288,-24.8
13.1937764403971,-59.6416952418919,7.8,3.2,287.9,-24.8
13.1937773790622,-59.6416949610906,7.8,2.5,287.7,-24.8
13.1937784900947,-59.6416947972136,7.8,3.6,288,-24.8
13.193779717912,-59.6416944864245,7.8,4.1,288,-24.8
13.1937808600253,-59.6416942138593,7.8,3.7,287.8,-24.8
13.1937822947862,-59.6416938121917,7.8,3.6,287.4,-24.8
13.1937833446848,-59.6416936640125,7.8,3.9,287.4,-24.8
13.1937848371013,-59.6416932933886,7.8,4.5,287.5,-24.8
13.1937859789405,-59.6416930389146,7.8,3.6,287.2,-24.8
13.1937868808705,-59.641692690324,7.8,3,287,-24.8
13.193787570888,-59.641692538062,7.8,3.8,287.1,-24.8
13.1937881790911,-59.6416924024833,7.8,4.5,287.4,-24.8
13.1937882878573,-59.6416924601359,7.8,3.9,287.5,-24.8
13.1937885843942,-59.6416924181108,7.8,3.9,287.4,-24.8
13.1937886570077,-59.6416923802389,7.8,4.1,287.4,-24.8
13.1937888270448,-59.6416923910795,7.8,4.3,287.5,-24.8
13.1937889909994,-59.6416920964106,7.8,4.1,287.5,-24.8
13.1937891056083,-59.6416920710688,7.8,4.4,287.5,-24.8
13.1937892133635,-59.6416919523143,7.8,4.1,287.5,-24.8
13.1937893880268,-59.6416918123712,7.8,3.7,287.6,-24.8
13.1937893877012,-59.6416917864663,7.8,3.6,287.5,-24.8
13.1937893930642,-59.6416916789748,7.8,4.4,287.5,-24.8
13.193789422346,-59.64169152087,7.8,4.6,287.6,-24.8
13.193789396748,-59.6416914742693,7.8,4,287.6,-24.8
13.1937893744396,-59.6416917849176,7.8,3.1,287.4,-24.8
13.1937892460037,-59.641691858268,7.8,3.1,287.5,-24.8
13.1937888532598,-59.6416917945616,7.8,4.1,287.7,-24.8
13.1937886681619,-59.641691855945,7.8,4.2,287.8,-24.8
13.1937884708819,-59.6416919830764,7.8,4.3,287.6,-24.8
13.1937883026952,-59.6416920536815,7.8,3.9,287.6,-24.8
13.1937881438809,-59.641692154908,7.8,4.2,287.7,-24.8
13.1937880581427,-59.6416922276953,7.8,4.7,287.7,-24.8
13.1937879931023,-59.6416923290625,7.8,4.1,287.6,-24.8
13.1937879181071,-59.6416923726363,7.8,4,287.7,-24.8
13.1937879611647,-59.6416924007235,7.8,4.4,287.6,-24.8
13.1937879533002,-59.6416924171957,7.8,4,287.6,-24.8
13.1937880154449,-59.6416925379212,7.8,3.9,287.6,-24.8
13.1937880318764,-59.6416925879009,7.8,4.1,287.6,-24.8
13.1937880396552,-59.6416925600953,7.8,4.2,287.6,-24.8
13.1937880486676,-59.6416925724846,7.8,4.2,287.6,-24.8
13.1937880164558,-59.6416928092897,7.8,3.6,287.6,-24.8
13.1937880287409,-59.6416928825698,7.8,4.2,287.5,-24.8
13.1937879392161,-59.6416928314638,7.8,4.1,287.6,-24.8
13.1937879573267,-59.6416928741929,7.8,3.5,287.6,-24.8
13.1937880349262,-59.6416929348724,7.8,3.2,287.5,-24.8
13.1937880644994,-59.6416930195563,7.8,3.9,287.5,-24.8
13.193788092462,-59.6416932099718,7.8,3.9,287.6,-24.8
13.1937881377298,-59.641693293459,7.8,2.8,287.6,-24.8
13.1937880170727,-59.6416932673429,7.8,3.3,287.6,-24.8
13.1937880353032,-59.6416933693436,7.8,3.6,287.7,-24.8
13.1937882131019,-59.641693538993,7.8,3.8,287.7,-24.8
13.1937882723339,-59.6416936480331,7.8,3.8,287.7,-24.8
13.1937881420647,-59.641693584045,7.8,3.5,287.5,-24.8
13.1937880464916,-59.6416935728524,7.8,2.8,287.5,-24.8
13.1937880020119,-59.6416936047409,7.8,2.5,287.6,-24.8
13.1937880061241,-59.6416936747828,7.8,3,287.6,-24.8
13.1937878671165,-59.6416937441912,7.8,4.8,287.7,-24.8
13.1937878240418,-59.6416938150779,7.8,4.4,287.9,-24.8
13.1937877687507,-59.6416938056451,7.8,2.7,287.7,-24.8
13.1937877591214,-59.6416938197942,7.8,3,287.9,-24.8
13.1937879474575,-59.6416938426722,7.8,3.3,288.3,-24.8
13.1937882533495,-59.6416937689698,7.8,2.6,288.1,-24.8
13.1937885966106,-59.641693723425,7.8,1.4,287.9,-24.8
13.1937892854117,-59.6416935650387,7.8,2.2,288,-24.8
13.1937904055765,-59.6416933179561,7.8,3.3,288.1,-24.8
13.1937916959498,-59.6416930427159,7.8,2.8,287.8,-24.8
13.1937931650127,-59.6416928914394,7.8,2.8,287.5,-24.8
13.1937946729697,-59.641692627955,7.8,6.3,287.6,-24.8
13.1937957005771,-59.6416927777532,7.8,6.4,287.8,-24.8
13.1937969189878,-59.641692550029,7.8,4.1,287.6,-24.8
13.1937979051482,-59.6416924752002,7.8,3,287,-24.8
13.1937986989459,-59.6416923583464,7.8,2.3,287.2,-24.8
13.1937990261183,-59.6416920170767,7.8,3,287.6,-24.8
13.1937994170289,-59.6416916703867,7.8,3.1,287.8,-24.8
13.1937995586236,-59.6416915302324,7.8,3.1,287.4,-24.8
13.1937996525004,-59.6416914111963,7.8,1.9,287.5,-24.8
13.1937994528045,-59.641691495669,7.8,2.1,287.5,-24.8
13.1937993438499,-59.6416914859547,7.8,2.2,287.4,-24.8
13.1937992150027,-59.6416912749841,7.8,1.4,287.3,-24.8
13.1937990590326,-59.6416912606942,7.8,1.3,287.6,-24.8
13.1937988503413,-59.6416912079692,7.8,1.9,287.7,-24.8
13.1937986481096,-59.6416912363379,7.8,2.4,287.5,-24.8
13.1937984300289,-59.641691237605,7.8,2.6,287.7,-24.8
13.1937982721055,-59.6416912363379,7.8,0.9,287.5,-24.8
13.193798100098,-59.6416912702678,7.8,0.8,287.4,-24.8
13.1937979997275,-59.6416913302434,7.8,2.3,287.5,-24.8
13.1937978497199,-59.6416912255676,7.8,3.4,287.6,-24.8
13.1937977418276,-59.6416912314103,7.8,2.6,287.6,-24.8
13.1937976682716,-59.641691251191,7.8,2.2,287.6,-24.8
13.1937975900039,-59.6416912350004,7.8,2,287.5,-24.8
13.1937974912953,-59.6416912009298,7.8,2.1,287.5,-24.8
13.1937974626302,-59.6416911900891,7.8,2,287.6,-24.8
13.1937973666974,-59.6416912460522,7.8,2.3,287.6,-24.8
13.1937974088126,-59.641691241899,7.8,2.5,287.6,-24.8
13.1937976425707,-59.6416911674222,7.8,2.1,287.5,-24.8
13.1937977981639,-59.6416911106144,7.8,2.2,287.5,-24.8
13.1937979120018,-59.6416912559778,7.8,2.3,287.5,-24.8
13.1937980690171,-59.6416912447148,7.8,2.1,287.4,-24.8
13.1937980808909,-59.641691148979,7.8,1.8,287.5,-24.8
13.1937982211835,-59.6416911378568,7.8,1.9,287.5,-24.8
13.1937983997876,-59.6416909365302,7.8,2.5,287.6,-24.8
13.19379850206,-59.6416908792296,7.8,1.9,287.4,-24.8
13.1937984857999,-59.641691063732,7.8,1.3,287.4,-24.8
13.1937984585055,-59.6416911141341,7.8,2.2,287.7,-24.8
13.1937983545369,-59.6416912083211,7.8,2.7,287.5,-24.8
13.1937982652691,-59.6416912473897,7.8,1.6,287.4,-24.8
13.1937980400093,-59.6416912285946,7.8,1.7,287.6,-24.8
13.1937978830283,-59.6416912911044,7.8,2.4,287.7,-24.8
13.1937976553698,-59.6416911325773,7.8,2.7,287.6,-24.8
13.193797518761,-59.6416910883699,7.8,1.1,287.4,-24.8
13.1937975225133,-59.64169105979,7.8,-0.3,287.4,-24.8
13.1937974911754,-59.6416910310692,7.8,0,287.4,-24.8
13.1937973157239,-59.641691163621,7.8,0.4,287.6,-24.8
13.1937973300993,-59.6416910312804,7.8,0.4,287.6,-24.8
13.1937973358734,-59.6416909996736,7.8,0,287.7,-24.8
13.1937973868126,-59.6416909812304,7.8,-0.8,287.6,-24.8
13.1937973697301,-59.6416912159236,7.8,0.3,287.5,-24.8
13.1937974005026,-59.641691332144,7.8,2.7,287.7,-24.8
13.1937973386149,-59.6416914897559,7.8,3.6,287.7,-24.8
13.1937973917814,-59.6416915531809,7.8,3.9,287.5,-24.8
13.1937974603343,-59.6416917699237,7.8,3.9,287.5,-24.8
13.1937975372314,-59.6416916892523,7.8,4,287.7,-24.8
13.1937975318684,-59.6416917651369,7.8,3.5,287.8,-24.8
13.1937976601159,-59.641691532837,7.8,3,287.6,-24.8
13.193797716041,-59.6416914846172,7.8,2.6,287.7,-24.8
13.1937978291421,-59.6416914511097,7.8,2.8,287.6,-24.8
13.1937979154628,-59.6416914553333,7.8,3.8,287.5,-24.8
13.1937980618551,-59.6416914111963,7.8,4.3,287.5,-24.8
13.193798051986,-59.641691408099,7.8,3.4,287.5,-24.8
13.1937980426822,-59.6416914117595,7.8,3.6,287.3,-24.8
13.1937980328988,-59.6416913741692,7.8,3.4,287.3,-24.8
13.1937979496964,-59.6416914108444,7.8,2.2,287.4,-24.8
13.1937979194722,-59.6416914982736,7.8,1.5,287.3,-24.8
13.1937979518724,-59.6416915217148,7.8,1.8,287.4,-24.8
13.1937979216482,-59.6416914630766,7.8,3.8,287.8,-24.8
13.1937979305407,-59.6416914577267,7.8,3.3,287.7,-24.8
13.1937980556526,-59.6416912711125,7.8,2,287.6,-24.8
13.1937980508208,-59.6416912526693,7.8,1.8,287.5,-24.8
13.1937980105904,-59.6416911057572,7.8,3.1,287.7,-24.8
13.1937980402492,-59.6416911356746,7.8,4,287.6,-24.8
13.1937980491589,-59.6416911001961,7.8,3.9,287.5,-24.8
13.1937980239035,-59.6416910901298,7.8,3.3,287.6,-24.8
13.1937978754551,-59.6416911514428,7.8,4.1,287.8,-24.8
13.1937978661342,-59.6416911687597,7.8,5.5,287.7,-24.8
13.1937977306391,-59.6416912901892,7.8,4,287.6,-24.8
13.1937976372935,-59.6416913191211,7.8,3.7,287.9,-24.8
13.1937974867034,-59.6416914099292,7.8,3.5,287.9,-24.8
13.1937974240789,-59.6416914480828,7.8,3.4,287.6,-24.8
13.1937974121194,-59.6416914235153,7.8,4,287.6,-24.8
13.1937973972814,-59.6416914736358,7.8,4.8,287.8,-24.8
13.1937974524184,-59.6416914341448,7.8,5.8,287.9,-24.8
13.1937975063218,-59.6416914226706,7.8,6,287.7,-24.8
13.1937975588544,-59.6416916090736,7.8,5,287.6,-24.8
13.1937975905521,-59.641691648635,7.8,5,287.8,-24.8
13.1937976085599,-59.6416917627435,7.8,5.4,287.8,-24.8
13.1937976945208,-59.6416918049095,7.8,5.7,287.7,-24.8
13.1937973754871,-59.6416918355308,7.8,6.1,287.6,-24.8
13.1937972971508,-59.641691838417,7.8,4.8,287.9,-24.8
13.1937972168098,-59.6416918836098,7.8,3.5,287.9,-24.8
13.1937971994874,-59.6416918562266,7.8,3.4,287.6,-24.8
13.1937971485482,-59.6416916678525,7.8,3.5,287.6,-24.8
13.1937971433052,-59.6416916083697,7.8,3.5,287.7,-24.8
13.193797353093,-59.6416915495908,7.8,3.4,287.7,-24.8
13.1937973957051,-59.6416914770146,7.8,3.2,287.5,-24.8
13.1937974058141,-59.6416915280502,7.8,2.9,287.5,-24.8
13.193797461071,-59.6416915022861,7.8,3.8,287.7,-24.8
13.1937973257473,-59.6416913293282,7.8,4.2,287.7,-24.8
13.1937973265868,-59.641691244222,7.8,3,287.7,-24.8
13.1937973214295,-59.6416913239079,7.8,1.1,287.6,-24.8
13.1937973573251,-59.6416913165869,7.8,2,287.6,-24.8
13.1937973103268,-59.6416912481641,7.8,4.4,287.7,-24.8
13.1937973573594,-59.6416912328182,7.8,4.4,287.8,-24.8
13.1937973914902,-59.6416912473897,7.8,4,287.5,-24.8
13.1937973334233,-59.6416912395056,7.8,4,287.7,-24.8
13.1937972724265,-59.6416912563298,7.8,4.6,287.8,-24.8
13.1937972855854,-59.64169123493,7.8,4.5,287.6,-24.8
13.1937972216929,-59.6416913436886,7.8,3.4,287.5,-24.8
13.1937972430932,-59.6416913208106,7.8,4.2,287.7,-24.8
13.1937972308082,-59.6416913549516,7.8,3.2,287.8,-24.8
13.1937972631742,-59.6416913374939,7.8,2.5,287.5,-24.8
13.1937972270216,-59.6416912915971,7.8,3,287.7,-24.8
13.1937972425621,-59.6416913440406,7.8,5.1,287.8,-24.8
13.1937972342007,-59.6416914002853,7.8,6.4,287.9,-24.8
13.1937972804794,-59.6416913776184,7.8,4.5,287.8,-24.8
13.1937974093266,-59.6416913831796,7.8,0,287.5,-24.8
13.1937974976691,-59.6416914598385,7.8,2.3,287.2,-24.8
13.1937975855148,-59.6416915691603,7.8,10.2,287.9,-24.8
13.1937977438494,-59.641691604146,7.8,10,287.5,-24.8
13.1937977057778,-59.6416916653184,7.8,6.2,287,-24.8
13.1937978436374,-59.6416916092848,7.8,5.1,287.4,-24.8
13.1937980668753,-59.6416916085808,7.8,5.8,287.3,-24.8
13.1937981365248,-59.6416915397356,7.8,4.2,287.2,-24.8
13.1937980059471,-59.6416914222482,7.8,4.3,287.7,-24.8
13.1937980597648,-59.641691523897,7.8,6.3,287.8,-24.8
13.1937980522772,-59.6416915158721,7.8,6.2,287.8,-24.8
13.1937979911776,-59.6416914806047,7.8,5.2,287.7,-24.8
13.1937978979005,-59.6416914611056,7.8,3.4,287.8,-24.8
13.1937978309412,-59.6416914748324,7.8,4,287.7,-24.8
13.193797533856,-59.6416912758288,7.8,5.6,288,-24.8
13.1937974452736,-59.6416912293689,7.8,6.3,288.2,-24.8
13.1937973167348,-59.6416914544182,7.8,4.6,287.4,-24.8
13.1937972844888,-59.6416914255567,7.8,4.1,287.5,-24.8
13.1937972567147,-59.6416914721575,7.8,5,288.1,-24.8
13.1937972233721,-59.6416914599793,7.8,5,287.9,-24.8
13.1937971909204,-59.6416913893742,7.8,4.3,287.5,-24.8
13.1937971858316,-59.6416913105331,7.8,2.7,287.7,-24.8
13.1937970629642,-59.6416912684375,7.8,2,287.5,-24.8
13.1937970206434,-59.6416912433069,7.8,3.1,287.7,-24.8
13.1937971032632,-59.6416912208512,7.8,4.1,288,-24.8
13.1937971350467,-59.6416913496721,7.8,5.2,288.1,-24.8
13.1937971036916,-59.6416913990182,7.8,3.2,287.8,-24.8
13.1937970487602,-59.6416914604017,7.8,4.2,288.1,-24.8
13.193796824854,-59.6416915629656,7.8,7.7,288.5,-24.8
13.1937967990675,-59.6416915942909,7.8,8.3,288.5,-24.8
13.1937966356098,-59.6416915486756,7.8,5.2,287.8,-24.8
13.1937966127017,-59.6416914707496,7.8,3.3,287.4,-24.8
13.193796556057,-59.6416913343262,7.8,2.7,287.6,-24.8
13.1937965358732,-59.6416912464746,7.8,2.7,287.7,-24.8
13.1937965806442,-59.6416911964246,7.8,2.6,287.4,-24.8
13.1937965717174,-59.6416911047013,7.8,1,287.4,-24.8
13.1937965266894,-59.6416912663961,7.8,0.9,287.5,-24.8
13.1937966379571,-59.6416912281018,7.8,1.4,287.5,-24.8
13.1937967705395,-59.6416913699455,7.8,1.4,287.3,-24.8
13.1937968576141,-59.6416914416065,7.8,4.7,287.4,-24.8
13.1937967974569,-59.6416915879554,7.8,6.2,287.3,-24.8
13.1937968538446,-59.6416916420884,7.8,4.4,287.5,-24.8
13.1937968998492,-59.6416917677415,7.8,4.2,287.7,-24.8
13.1937969790765,-59.6416918018825,7.8,5.5,287.5,-24.8
13.1937969876949,-59.641691779638,7.8,3.7,287.6,-24.8
13.1937969930578,-59.6416917885077,7.8,3.4,287.8,-24.8
13.1937969418274,-59.6416919296475,7.8,5.3,287.8,-24.8
13.1937969814067,-59.6416919653372,7.8,5.4,287.6,-24.8
13.1937968814474,-59.6416919781489,7.8,5.3,287.7,-24.8
13.193796934357,-59.641691933308,7.8,4.7,287.7,-24.8
13.1937969548834,-59.6416919196515,7.8,3.6,287.7,-24.8
13.193797011254,-59.6416918873407,7.8,3.8,287.6,-24.8
13.1937969628336,-59.6416919094444,7.8,3.8,287.7,-24.8
13.1937969807385,-59.6416918726284,7.8,3.1,287.7,-24.8
13.1937968522683,-59.6416919320409,7.8,3,287.5,-24.8
13.193796865153,-59.6416919166246,7.8,5.1,287.7,-24.8
13.1937970498225,-59.6416919115562,7.8,5.8,287.9,-24.8
13.1937970888707,-59.6416918279283,7.8,3.2,287.7,-24.8
13.1937972410371,-59.6416919207778,7.8,3.3,287.6,-24.8
13.1937972603814,-59.6416919169766,7.8,3,287.5,-24.8
13.1937972750651,-59.6416919017715,7.8,2.2,287.6,-24.8
13.193797311252,-59.6416918472866,7.8,2.5,287.5,-24.8
13.1937972429561,-59.6416918245494,7.8,2.8,287.4,-24.8
13.1937972483533,-59.6416917786525,7.8,2.5,287.6,-24.8
13.1937972032568,-59.6416917588015,7.8,2.2,287.6,-24.8
13.1937972327272,-59.6416916144235,7.8,2.1,287.5,-24.8
13.1937972458004,-59.641691544452,7.8,2.3,287.5,-24.8
13.1937972472396,-59.641691458853,7.8,1.1,287.2,-24.8
13.1937971692631,-59.6416914684266,7.8,0.3,287.3,-24.8
13.1937971147601,-59.6416914109852,7.8,1.3,287.7,-24.8
13.1937971062445,-59.6416914245008,7.8,1.3,287.3,-24.8
13.1937971039657,-59.6416913927532,7.8,1.1,287.3,-24.8
13.1937970424721,-59.6416912676632,7.8,0.7,287.7,-24.8
13.1937970232649,-59.6416912117,7.8,0.1,287.3,-24.8
13.1937971224018,-59.641691158975,7.8,-0.1,287.3,-24.8
13.193797140718,-59.6416911061796,7.8,-0.1,287.5,-24.8
13.1937971549734,-59.6416910914672,7.5,0.4,287.4,-24.8
13.1937971688348,-59.6416910394461,7.5,0,287.5,-24.8
13.1937971354065,-59.6416909434288,7.5,-0.7,287.6,-24.8
13.193797190612,-59.6416909061201,7.5,-0.2,287.7,-24.8
13.1937973071227,-59.6416910187503,7.5,0.7,287.6,-24.8
13.1937973897254,-59.6416910168497,7.5,1.5,287.4,-24.8
13.193797391216,-59.6416910074873,7.5,1.1,287.5,-24.8
13.1937974411272,-59.6416909732759,7.5,0.1,287.5,-24.8
13.1937973481071,-59.6416910509203,7.5,0,287.3,-24.8
13.1937973653095,-59.6416910592972,7.5,0.1,287.2,-24.8
13.1937972725978,-59.6416908744428,7.5,0.8,287.2,-24.8
13.1937972694281,-59.641690854451,7.5,0.5,287.5,-24.8
13.1937973130682,-59.6416907925043,7.5,0.6,287.5,-24.8
13.1937973258844,-59.6416907860281,7.5,0.9,287.4,-24.8
13.193797168098,-59.641690871627,7.5,1.1,287.6,-24.8
13.1937971743005,-59.6416908584634,7.5,1.1,287.6,-24.8
13.1937971604049,-59.6416911039974,7.5,1.1,287.5,-24.8
13.1937971628722,-59.6416911476416,7.5,1.1,287.4,-24.8
13.1937974571302,-59.6416911796004,7.5,1.4,287.4,-24.8
13.1937975528918,-59.6416911874141,7.5,1.5,287.4,-24.8
13.1937973263298,-59.6416913283427,7.5,1.3,287.4,-24.8
13.1937973366445,-59.6416913626949,7.5,1.3,287.5,-24.8
13.193797481409,-59.641691412745,7.5,1.9,287.6,-24.8
13.193797531046,-59.6416914397059,7.5,1.8,287.4,-24.8
13.1937975510756,-59.641691355726,7.5,1.6,287.3,-24.8
13.1937975682438,-59.641691348405,7.5,1.2,287.6,-24.8
13.1937976803168,-59.641691242251,7.5,1.1,287.6,-24.8
13.1937977297824,-59.6416911898075,7.5,0.8,287.4,-24.8
13.1937977005691,-59.6416913323552,7.5,0.8,287.4,-24.8
13.193797755946,-59.6416913236967,7.5,1.2,287.6,-24.8
13.1937976572545,-59.6416913330591,7.5,1.4,287.5,-24.8
13.1937976889352,-59.6416913016634,7.5,0.9,287.4,-24.8
13.1937977431812,-59.641691181853,7.5,0.3,287.3,-24.8
13.1937978621592,-59.6416912045902,7.5,0.2,287.2,-24.8
13.1937979150002,-59.6416911871326,7.5,0.5,287.2,-24.8
13.1937979813942,-59.6416911508093,7.5,0,287.2,-24.8
13.1937981338176,-59.6416913810678,7.5,0.3,287.4,-24.8
13.1937981883549,-59.6416914143641,7.5,1.9,287.4,-24.8
13.1937982226913,-59.6416912818124,7.5,2,287.4,-24.8
13.1937982417099,-59.641691277096,7.5,1.2,287.3,-24.8
13.1937981171634,-59.6416911993107,7.5,0.8,287.4,-24.8
13.1937980971167,-59.6416911612276,7.5,0.5,287.4,-24.8
13.1937982625962,-59.6416909235778,7.5,0.4,287.4,-24.8
13.1937982843734,-59.6416908662067,7.5,0.3,287.6,-24.8
13.1937982880744,-59.6416908377676,7.5,0.8,287.5,-24.8
13.1937982947223,-59.6416907982766,7.5,0.4,287.4,-24.8
13.1937981789826,-59.6416909734166,7.5,-0.2,287.2,-24.8
13.1937981255076,-59.6416909572964,7.5,0.1,287.5,-24.8
13.1937981158612,-59.641691225286,7.5,0.9,287.8,-24.8
13.1937981494437,-59.6416912511206,7.5,0.8,287.7,-24.8
13.1937981263643,-59.6416913500944,7.5,0.5,287.8,-24.8
13.1937981077569,-59.6416914144345,7.5,1.1,287.8,-24.8
13.1937981238457,-59.6416912965247,7.5,1.7,287.7,-24.8
13.19379812914,-59.6416912280314,7.5,1,287.6,-24.8
13.1937981103955,-59.6416912338741,7.8,0.5,287.5,-24.8
13.1937981026339,-59.6416912149381,7.8,0.9,287.6,-24.8
13.1937981118348,-59.6416912282426,7.8,0.9,287.7,-24.8
13.1937980991557,-59.641691204731,7.8,0.4,287.6,-24.8
13.1937982723625,-59.6416910538065,7.8,0.1,287.5,-24.8
13.1937982787878,-59.6416910081912,7.8,-0.1,287.5,-24.8
13.1937983133469,-59.6416910929455,7.8,-0.1,287.5,-24.8
13.1937983462269,-59.6416910649287,7.8,0.2,287.5,-24.8
13.1937982511507,-59.6416911441219,7.8,0.4,287.5,-24.8
13.1937982411617,-59.6416911406022,7.8,0.4,287.5,-24.8
13.1937981925184,-59.6416910861877,7.8,0,287.5,-24.8
13.1937981729344,-59.6416910459224,7.8,0,287.4,-24.8
13.1937982647551,-59.6416911079394,7.8,0,287.5,-24.8
13.1937982931631,-59.6416910856949,7.8,0.4,287.6,-24.8
13.1937982227941,-59.6416911515836,7.8,0.6,287.7,-24.8
13.1937981309048,-59.6416909973506,7.8,0,287.8,-24.8
13.1937981259703,-59.6416909030931,7.8,-1,287.7,-24.8
13.193798113017,-59.6416908205211,7.8,-1.4,287.5,-24.8
13.1937981033021,-59.6416908710639,7.8,-1.2,287.5,-24.8
13.193798082947,-59.6416908332624,7.8,-1.3,287.5,-24.8
13.1937981392662,-59.6416909098509,7.8,-1.4,287.5,-24.8
13.1937981405684,-59.6416908953498,7.8,-0.9,287.5,-24.8
13.1937979746263,-59.6416908012331,7.8,-0.7,287.5,-24.8
13.1937979444534,-59.6416907704006,7.8,-1.1,287.5,-24.8
13.1937979990079,-59.6416908100324,7.8,-1.5,287.4,-24.8
13.1937979863116,-59.6416907954608,7.8,-1.8,287.5,-24.8
13.1937979119675,-59.6416906893772,7.8,-1.4,287.4,-24.8
13.1937979020641,-59.6416906844497,7.8,-1.1,287.4,-24.8
13.1937980167415,-59.6416906222214,7.8,-0.7,287.4,-24.8
13.193798009768,-59.6416906257411,7.8,-0.7,287.5,-24.8
13.1937980982647,-59.6416906166603,7.8,-0.9,287.6,-24.8
13.1937981457599,-59.6416906066644,7.8,-1,287.5,-24.8
13.193798030243,-59.6416905759726,7.8,-1,287.5,-24.8
13.1937980295062,-59.6416905478151,7.8,-0.9,287.5,-24.8
13.1937980349891,-59.6416907501272,7.8,-1.3,287.4,-24.8
13.1937980463489,-59.6416907651915,7.8,-1.4,287.3,-24.8
13.1937980175125,-59.6416907656138,7.8,-1.1,287.2,-24.8
13.1937979974487,-59.6416908051048,7.8,-1.6,287.4,-24.8
13.1937980032571,-59.6416907511831,7.8,-0.4,287.3,-24.8
13.1937980381075,-59.6416909358967,7.8,0.6,287.2,-24.8
13.1937980165701,-59.6416910477526,7.8,-0.3,287.3,-24.8
13.1937980109845,-59.6416911185689,7.8,-0.5,287.4,-24.8
13.1937980506152,-59.6416911474304,7.8,0.5,287.5,-24.8
13.1937980650077,-59.6416912332406,7.8,1.8,287.6,-24.8
13.1937981045186,-59.6416913241191,7.8,1.1,287.5,-24.8
13.19379808526,-59.6416913517839,7.8,0.4,287.4,-24.8
13.1937981881664,-59.6416914466749,7.8,0.4,287.4,-24.8
13.193798217277,-59.6416915043979,7.8,1.1,287.4,-24.8
13.1937981122117,-59.6416915897153,7.8,1.2,287.5,-24.8
13.1937980303972,-59.6416916517323,7.8,1.8,287.5,-24.8
13.1937980218302,-59.6416917297288,7.8,0.8,287.4,-24.8
13.1937980193458,-59.6416917692902,7.8,0.5,287.4,-24.8
13.1937980309626,-59.641691673484,7.8,2.2,287.3,-24.8
13.1937980567321,-59.6416916734136,7.8,2,287.5,-24.8
13.193798171101,-59.6416917019232,7.8,1.8,287.5,-24.8
13.1937981483129,-59.6416917134678,7.8,2,287.2,-24.8
13.1937981315045,-59.6416917925201,7.8,0.4,287.3,-24.8
13.1937980990529,-59.6416918548891,7.8,2.5,287.7,-24.8
13.1937981013317,-59.64169189614,7.8,2.7,287.8,-24.8
13.1937980882585,-59.6416918650259,7.8,0.2,287.5,-24.8
13.1937981027195,-59.6416917223374,7.8,0,287.3,-24.8
13.1937980664641,-59.6416917225486,7.8,0.9,287.7,-24.8
13.193798025634,-59.6416915196734,7.8,1.8,287.9,-24.8
13.1937980668068,-59.6416914377348,7.8,0.6,287.5,-24.8
13.1937980759735,-59.6416915416363,7.8,-0.1,287.4,-24.8
13.193798142573,-59.6416917281801,7.8,0.6,287.6,-24.8
13.1937981449204,-59.6416918022345,7.8,1,287.7,-24.8
13.1937981532132,-59.6416918386282,7.8,2.2,287.7,-24.8
13.1937983506132,-59.6416917964622,7.8,2.4,287.6,-24.8
13.1937984141801,-59.641691791605,7.8,1.5,287.6,-24.8
13.1937982136274,-59.6416916835504,7.8,1.1,287.5,-24.8
13.193798178006,-59.6416916383575,7.8,1.1,287.7,-24.8
13.1937982542862,-59.6416915825351,7.8,1.5,287.7,-24.8
13.1937982417613,-59.6416915366383,7.8,1,287.6,-24.8
13.1937980535623,-59.6416916318108,7.8,0,287.5,-24.8
13.1937980047649,-59.6416916321628,7.8,1.1,287.6,-24.8
13.1937979004535,-59.6416915747214,7.8,1.2,287.6,-24.8
13.193797860343,-59.641691528191,7.8,0.3,287.5,-24.8
13.1937979033149,-59.6416916451857,7.8,0.5,287.5,-24.8
13.1937979057993,-59.6416916665854,7.8,0.9,287.5,-24.8
13.1937979319799,-59.6416916872812,7.8,1.3,287.5,-24.8
13.1937979662992,-59.6416917102297,7.8,2.2,287.6,-24.8
13.1937980870248,-59.6416917304327,7.8,2.4,287.7,-24.8
13.1937981491867,-59.6416916989666,7.8,1.3,287.4,-24.8
13.1937981256618,-59.6416916598276,7.8,0.9,287.5,-24.8
13.1937982011025,-59.6416916865069,7.8,2.3,287.6,-24.8
13.1937981770808,-59.6416914770146,7.8,2.7,287.7,-24.8
13.1937981947973,-59.6416914319625,7.8,2.7,287.5,-24.8
13.1937982459592,-59.641691443296,7.8,2,287.4,-24.8
13.1937982633844,-59.641691418095,7.8,1.6,287.6,-24.8
13.193798426585,-59.6416915814088,7.8,2.1,287.6,-24.8
13.1937985061036,-59.6416916377239,7.8,3,287.6,-24.8
13.1937984667298,-59.6416915488868,7.8,4.5,287.7,-24.8
13.1937984632002,-59.6416915483237,7.8,4.2,287.7,-24.8
13.193798574982,-59.6416915885186,7.8,3.1,287.8,-24.8
13.1937986093012,-59.6416915992889,7.8,2.6,287.7,-24.8
13.1937985331238,-59.6416914395651,7.8,2.6,287.7,-24.8
13.1937985287375,-59.6416913606535,8.2,2.6,287.3,-24.8
13.193798679379,-59.6416914053536,8.2,1.5,286.7,-24.8
13.1937986490691,-59.6416913985254,8.2,0,285.9,-24.8
13.1937986930861,-59.6416913096883,8.2,1.3,285.2,-24.8
13.1937987317403,-59.6416912659737,8.2,2.3,284.3,-24.8
13.1937986645239,-59.6416914819422,8.2,2.7,283.1,-24.8
13.1937986778541,-59.6416915121412,8.2,2.4,281.6,-24.8
13.1937987711312,-59.6416913309473,8.2,2.5,279.8,-24.8
13.1937987905782,-59.6416913353117,8.2,2.9,277.6,-24.8
13.1937988010813,-59.6416913574858,8.2,2.9,275.4,-24.8
13.1937988279816,-59.6416913892334,8.2,3.6,272.8,-24.8
13.193798810642,-59.6416913667778,8.2,3.6,269.8,-24.8
13.1937988406778,-59.6416913819125,8.2,3.3,266.2,-24.8
13.1937988584114,-59.6416912824459,8.2,3.6,262.7,-24.8
13.1937988398211,-59.6416912528804,8.2,3,259.3,-24.8
13.1937988319052,-59.641691394161,8.2,2.6,255.8,-24.8
13.1937988767276,-59.6416913861361,8.2,2.4,252.1,-24.8
13.1937988772416,-59.6416915362159,8.2,3,248.5,-24.8
13.1937990075965,-59.6416913398873,8.2,4,245.3,-24.8
13.193799133411,-59.6416912663961,8.2,2.7,242.4,-24.8
13.1937992007816,-59.6416912524581,7.8,1.9,239.8,-24.8
13.1937990825403,-59.6416913393242,7.8,2.6,237.2,-24.8
13.1937990080763,-59.6416914473788,7.8,3.5,234.4,-24.8
