OSD.latitude,OSD.longitude,OSD.height [ft],OSD.pitch,OSD.yaw [360],GIMBAL.pitch
13.1939387032944,-59.6415065636197,21.9,0,235.3,-90
13.1939387754624,-59.6415065581642,21.9,0.5,235.3,-90
13.1939388220323,-59.6415066354917,21.9,1.1,235.3,-90
13.1939388078797,-59.6415068230206,21.9,1.2,235.4,-90
13.1939388006835,-59.6415069896073,22.3,2.3,235.3,-90
13.1939387454952,-59.6415071448607,22.3,4.2,235.2,-90
13.1939386942991,-59.641507332812,22.3,5.2,235.2,-90
13.1939387378535,-59.6415073239072,22.3,5,235.1,-90
13.1939387035514,-59.6415074104562,21.9,4.8,235.1,-90
13.1939388100215,-59.6415074697278,21.9,4.7,235.1,-90
13.1939388751817,-59.6415075221007,21.9,5,235.2,-90
13.1939388268812,-59.6415076476831,21.9,8.1,235.2,-90
13.1939388967704,-59.6415076341323,21.9,10.8,235.1,-90
13.1939389648262,-59.6415077659798,21.9,11.1,235.2,-90
13.1939391214644,-59.6415076002377,21.9,11,235.1,-90
13.1939393641146,-59.6415072778696,21.9,11.4,235.2,-90
13.1939396353785,-59.6415069403669,21.9,11.5,235.4,-90
13.1939399332342,-59.6415064580995,21.9,12.5,235.3,-90
13.193940375186,-59.6415058321937,21.9,13.7,235.2,-90
13.193940850686,-59.6415052548243,21.9,12.2,235.3,-90
13.1939413729615,-59.6415045124521,21.9,10.5,235.3,-90
13.1939419749781,-59.6415036675866,21.9,10,235.1,-90
13.193942535051,-59.6415028786489,22.3,10.3,235.1,-90
13.1939430469434,-59.6415020745765,22.3,10.7,235.2,-90
13.1939437663615,-59.6415010139894,22.3,10.7,235.3,-90
13.1939443987737,-59.6415000784216,21.9,10.1,235.2,-90
13.1939452980293,-59.6414987260173,21.9,8.7,235.4,-90
13.1939460525719,-59.6414976399125,21.9,7.4,235.5,-90
13.1939468625598,-59.6414964345607,22.3,8.7,235.3,-90
13.1939475040873,-59.6414953084371,22.3,9.2,235.2,-90
13.1939483689379,-59.6414939661695,21.9,8.3,235.1,-90
13.1939492409163,-59.6414925334812,21.9,8.3,235.2,-90
13.1939501320161,-59.6414910944222,21.9,7.7,235.1,-90
13.193951016468,-59.6414898754141,21.9,7.6,235.2,-89.8
13.1939518979385,-59.6414885824573,21.9,8,235.2,-88.9
13.1939527975882,-59.6414873554946,21.9,8.8,235.1,-87.6
13.193953730923,-59.6414859992187,21.9,9.2,235.1,-86.1
13.1939544792289,-59.641484879712,21.9,9,235.3,-84.6
13.1939556717311,-59.6414833141556,21.9,9.1,235.2,-82.9
13.1939567167619,-59.6414819159602,21.9,8.5,235,-81.3
13.1939578386553,-59.641480405346,21.9,7.5,235.2,-79.6
13.1939587784497,-59.6414791778202,21.9,7.1,235.3,-78
13.193959945628,-59.641477609096,22.3,7.8,235.2,-76.3
13.1939610048456,-59.6414762152298,22.3,8.4,235,-74.7
13.1939621492358,-59.6414746117662,22.3,8.1,235.1,-73
13.1939631963741,-59.6414729762384,22.3,7.5,235.3,-71.4
13.1939643398219,-59.6414713074143,22.3,7.1,235.3,-69.7
13.1939653898387,-59.6414697868746,22.3,6.2,235.1,-68.1
13.193966522338,-59.6414681583861,22.3,5.4,235,-66.5
13.1939674834469,-59.6414667605427,22.3,6.2,235,-64.8
13.1939687510127,-59.6414649063015,22.3,5.7,235.1,-63.2
13.1939698385013,-59.6414632141419,22.3,5.7,235.1,-61.5
13.1939707773019,-59.6414617510787,22.3,6,235.2,-59.9
13.1939717588344,-59.6414601880916,22.3,6.2,235.3,-58.2
13.1939728463401,-59.6414585266589,22.3,6.9,235.1,-56.6
13.1939737896983,-59.6414570261814,22.3,7.9,235.2,-54.9
13.193974922249,-59.641455277566,22.3,7.3,235.2,-53.3
13.1939756737075,-59.6414539558182,22.3,6.8,235.3,-51.6
13.1939766390656,-59.6414524574173,22.3,7.3,235.1,-50
13.1939778029714,-59.6414506879302,22.3,8.2,235.1,-48.3
13.1939788115583,-59.6414491138913,22.3,9.1,235.1,-46.7
13.1939798483477,-59.6414475524528,21.9,8.4,235.2,-45
13.1939810059996,-59.6414457156693,21.9,6.1,235.2,-43.4
13.1939819657892,-59.6414442341277,21.9,7.7,235.4,-41.7
13.1939830734272,-59.6414424975849,21.9,9.6,235.4,-40.1
13.1939840698148,-59.641441034944,21.9,8.1,235.3,-38.4
13.193985300954,-59.6414390737396,21.9,5.9,235.2,-36.8
13.1939861497159,-59.641437480624,21.9,5.6,235.4,-35.6
13.1939872047871,-59.6414358701211,21.9,3.3,235.6,-34.9
13.1939882738739,-59.6414340456917,21.9,2.1,235.1,-34.5
13.1939892861275,-59.6414324422986,22.3,3.2,235,-34.5
13.1939904980081,-59.6414307545738,22.3,4.2,235.2,-34.4
13.1939914089661,-59.6414293564487,22.3,4.6,235.4,-34.1
13.193992456567,-59.6414281005543,21.9,4.8,235.3,-33.4
13.1939935711271,-59.6414265993376,21.9,3.2,235,-32.6
13.1939945109043,-59.6414251096304,21.9,0.6,235.1,-31.8
13.1939954583746,-59.641423671381,21.9,0.7,235.1,-31.3
13.1939961983706,-59.6414226104771,21.9,-4.4,235.4,-31
13.1939971189579,-59.6414212652882,21.9,-12.9,235.4,-30.9
13.1939976494576,-59.6414203199004,22.3,-14.1,235.1,-30.9
13.1939980581868,-59.6414195849195,22.3,-11.7,235,-30.9
13.1939982688823,-59.6414192540338,21.9,-7.6,235.2,-30.9
13.1939984043772,-59.6414189884735,21.9,-3.5,235.1,-30.9
13.1939986718202,-59.6414187795449,21.9,-0.5,235.1,-30.9
13.1939987137469,-59.641418614014,21.9,-0.8,235.1,-30.9
13.1939987065164,-59.6414183695014,21.9,-1,235.2,-30.9
13.1939987095148,-59.6414182969255,21.9,-0.1,235.2,-30.9
13.1939985686228,-59.6414182599688,21.9,0.7,235,-30.9
13.1939983897106,-59.6414182560971,21.9,1.1,235,-30.9
13.1939984595998,-59.641418324907,21.9,2.2,235.1,-30.9
13.1939983432777,-59.6414183987852,21.9,4.3,235.1,-30.9
13.1939982792826,-59.6414183084701,21.9,4.4,235,-30.9
13.1939981983592,-59.6414182835859,21.9,3.1,235.2,-30.9
13.1939981383049,-59.6414182656707,21.9,2.4,235.3,-30.9
13.1939981326678,-59.6414182559915,21.9,2.3,235.2,-30.9
13.1939980512647,-59.6414182797494,21.9,2.5,235.3,-30.9
13.1939980144953,-59.6414182569067,21.9,2.1,235.3,-30.9
13.1939979390034,-59.6414181660636,21.9,1.7,235.1,-30.9
13.1939978852201,-59.641418131993,21.9,1.4,235.2,-30.9
13.1939979222122,-59.6414180296053,21.9,2.2,235.2,-30.9
13.1939979031935,-59.6414179978577,21.9,2.1,235.1,-30.9
13.1939979747618,-59.6414178292296,21.9,1.7,234.9,-30.9
13.1939979717634,-59.641417779954,21.9,1.9,235.1,-30.9
13.1939979674457,-59.641417757076,21.9,2.3,235.3,-30.9
13.1939979827462,-59.6414177421877,21.9,2.2,235.1,-30.9
13.1939979956138,-59.6414177851631,21.9,1.9,235.1,-30.9
13.1939980262149,-59.6414178055421,21.9,2.1,235.2,-30.9
13.1939980998222,-59.641417950518,21.9,2.3,235.2,-30.9
13.1939981134607,-59.6414180166177,21.9,2.3,235.2,-30.9
13.1939980723736,-59.6414179299982,21.9,2.8,235.3,-30.9
13.1939980713285,-59.6414179645615,21.9,3.1,235.3,-30.9
13.1939979906621,-59.6414179017703,21.9,2.6,235.2,-30.9
13.1939980016449,-59.6414178991306,21.9,1.9,235.2,-30.9
13.193997966469,-59.6414179737831,21.9,2.4,235.3,-30.9
13.1939979529332,-59.6414179314061,21.9,2.7,235.1,-30.9
13.1939981103938,-59.6414180102822,21.9,2.5,235.1,-30.9
13.1939981898779,-59.6414180532576,21.9,2.1,235.1,-30.9
13.1939982373902,-59.6414179609362,21.9,1.7,235.1,-30.9
13.1939982903682,-59.6414178912816,21.9,1,235.3,-30.9
13.1939982417765,-59.6414180960922,21.9,0.6,235.4,-30.9
13.1939982955769,-59.6414181215747,21.9,0.9,235.3,-30.9
13.1939982898028,-59.6414181045042,21.9,1,235.2,-30.9
13.1939982779119,-59.6414181089742,21.9,0.6,235.3,-30.9
13.1939981627378,-59.6414180608601,21.9,0.6,235.4,-30.9
13.1939981460837,-59.6414180324563,21.9,0.9,235.4,-30.9
13.1939980452336,-59.6414179652654,21.9,1.3,235.3,-30.9
13.1939979741964,-59.6414179222901,21.9,1.5,235.3,-30.9
13.1939979069973,-59.6414179748742,21.9,1.5,235.2,-30.9
13.1939978443215,-59.6414179802593,21.9,2.1,235.2,-30.9
13.193997841186,-59.6414180113029,21.9,2.2,235.1,-30.9
13.1939978420084,-59.6414180380878,21.9,1.8,235,-30.9
13.1939978584741,-59.6414180403756,21.9,1.7,235.1,-30.9
13.193997846566,-59.6414181071088,21.9,1.9,235.2,-30.9
13.1939979116234,-59.6414181291772,21.9,1.9,235.3,-30.9
13.1939979733911,-59.6414181508937,21.9,1.8,235.2,-30.9
13.1939979106125,-59.64141834958,21.9,1.7,235.2,-30.9
13.1939979002636,-59.6414184054726,21.9,1.9,235.3,-30.9
13.1939978575488,-59.6414183465883,21.9,2.3,235.3,-30.9
13.1939977965693,-59.64141841663,21.9,2.4,235.3,-30.9
13.1939977642719,-59.6414182767577,21.9,2.5,235.3,-30.9
13.1939977765569,-59.64141823695,21.9,2.3,235.2,-30.9
13.1939977503934,-59.641418170428,21.9,1.8,235.2,-30.9
13.1939977542486,-59.641418165782,21.9,1.9,235.2,-30.9
13.1939977838045,-59.641418171871,21.9,2,235.2,-30.9
13.1939978037998,-59.6414181423761,21.9,1.7,235.2,-30.9
13.1939978082203,-59.6414182148464,21.9,1.3,235.3,-30.9
13.1939978325162,-59.641418268416,21.9,1.6,235.3,-30.9
13.1939979369473,-59.6414181872873,21.9,1.6,235.3,-30.9
13.1939979968817,-59.6414181499082,21.9,1.2,235.3,-30.9
13.193997998972,-59.6414180810983,21.9,0.9,235.3,-30.9
13.193998001525,-59.641418075678,21.9,1.1,235.4,-30.9
13.1939979912275,-59.6414177998754,21.9,1.4,235.3,-30.9
13.1939980168598,-59.6414176908355,21.9,0.9,235.3,-30.9
13.1939979846824,-59.6414177265251,21.9,0,235.3,-30.9
13.1939979711294,-59.6414176927009,21.9,-0.2,235.3,-30.9
13.1939980838534,-59.6414176641211,21.9,0.3,235.3,-30.9
13.1939980890278,-59.6414176466282,21.9,0.8,235.2,-30.9
13.1939982277952,-59.6414175628245,21.9,0.6,235.3,-30.9
13.1939983104834,-59.6414175259734,21.9,0.2,235.3,-30.9
13.1939981929792,-59.6414175342446,21.9,0.4,235.2,-30.9
13.1939981929792,-59.6414174980271,21.9,0.8,235.2,-30.9
13.1939980614422,-59.6414176378642,21.9,0.6,235.3,-30.9
13.1939980613566,-59.6414177321918,21.9,1.2,235.3,-30.9
13.1939980703176,-59.6414176615517,21.9,1.9,235.1,-30.9
13.1939980607569,-59.6414177036472,21.9,1.7,235.3,-30.9
13.1939980821571,-59.6414176854152,21.9,1.6,235.3,-30.9
13.1939980823113,-59.6414176543012,21.9,1.1,235.1,-30.9
13.1939980641494,-59.6414178033247,21.9,1.1,235.1,-30.9
13.1939980331713,-59.6414178296167,21.9,1.7,235.3,-30.9
13.1939980631556,-59.6414179676236,21.9,1.7,235.1,-30.9
13.1939980594547,-59.6414180683571,21.9,2,235,-30.9
13.1939980874343,-59.6414179463999,21.9,2.2,235.3,-30.9
13.1939981096742,-59.641417965371,21.9,1.5,235.3,-30.9
13.1939979929923,-59.641417892056,21.9,1,235.2,-30.9
13.1939979921527,-59.6414178778012,21.9,0.9,235.2,-30.9
13.1939979464224,-59.6414178583022,21.9,1.3,235.3,-30.9
13.1939979093446,-59.6414178238796,21.9,1.5,235.3,-30.9
13.1939979539099,-59.6414177999458,21.9,1.3,235.1,-30.9
13.193997944452,-59.6414178183537,21.9,1.4,235,-30.9
13.1939979937805,-59.6414176407856,21.9,1.5,235.1,-30.9
13.1939980407445,-59.6414175789799,21.9,0.8,235.3,-30.9
13.1939980182819,-59.6414176717236,21.9,0.2,235.3,-30.9
13.1939980670107,-59.6414176752433,21.9,0.4,235.2,-30.9
13.1939981004218,-59.6414176887589,21.9,0.9,235.2,-30.9
13.1939981051508,-59.6414176775663,21.9,0.7,235.3,-30.9
13.1939981224389,-59.6414177043159,21.9,0.2,235.3,-30.9
13.1939981877705,-59.6414177375769,21.9,0.4,235.1,-30.9
13.1939980967209,-59.6414177036472,21.9,0.7,235.2,-30.9
13.1939980835621,-59.6414176955519,21.9,0.7,235.3,-30.9
13.1939980755777,-59.6414178478487,21.9,0.3,235.2,-30.9
13.1939980762802,-59.6414178993065,21.9,0.6,235.3,-30.9
13.1939980797926,-59.6414176856264,21.9,0.8,235.3,-30.9
13.1939980692553,-59.641417646593,21.9,0.5,235.3,-30.9
13.1939980580497,-59.6414175518431,21.9,0.2,235.2,-30.9
13.193998020595,-59.6414175142176,21.9,0.1,235.3,-30.9
13.1939979300252,-59.6414175007372,21.9,0.5,235.3,-30.9
13.1939978533853,-59.6414175421991,21.9,1.4,235.2,-30.9
13.1939980588893,-59.6414175061224,21.9,1.8,235.2,-30.9
13.1939980655886,-59.6414175096068,21.9,1.6,235.2,-30.9
13.1939980056885,-59.6414173774074,21.9,1.2,235.2,-30.9
13.1939980385171,-59.6414173600554,21.9,1.1,235.1,-30.9
13.1939978396268,-59.6414173509746,21.9,1,235.2,-30.9
13.1939978114586,-59.6414173264424,21.9,0.6,235.3,-30.9
13.1939978737061,-59.6414172796658,21.9,0.9,235.3,-30.9
13.193997879703,-59.6414172840654,21.9,1.4,235.3,-30.9
13.1939978594678,-59.6414171723857,21.9,1.3,235.2,-30.9
13.1939978238293,-59.6414171390895,21.9,1.2,235.2,-30.9
13.1939979738709,-59.6414169611341,22.3,1.7,235.3,-30.9
13.1939979790282,-59.6414169254797,22.3,1.4,235.2,-30.9
13.1939980448223,-59.6414166828677,22.3,1,235.2,-30.9
13.1939981378251,-59.6414165390533,21.9,0.1,235.2,-30.9
13.1939979677712,-59.6414167461869,21.9,-0.1,235.2,-30.9
13.1939979354909,-59.6414167543174,21.9,0.6,235.2,-30.9
13.193997978497,-59.6414169733474,21.9,1.4,235.2,-30.9
13.1939979857618,-59.6414170740105,21.9,1.5,235.2,-30.9
13.1939979921185,-59.6414170960437,21.9,1.6,235.2,-30.9
13.1939979984923,-59.6414171980442,21.9,2,235.2,-30.9
13.1939980955387,-59.6414172544648,21.9,2,235.2,-30.9
13.1939981200916,-59.6414173030716,21.9,1.8,235.2,-30.9
13.1939981094171,-59.6414172492556,21.9,1.8,235.2,-30.9
13.1939981367457,-59.641417294554,21.9,1.7,235.2,-30.9
13.1939980782506,-59.6414172058579,21.9,1.6,235.2,-30.9
13.1939980739328,-59.6414172092368,21.9,1.7,235.2,-30.9
13.1939980977318,-59.641417173688,21.9,1.5,235.2,-30.9
13.1939981175386,-59.6414171480295,21.9,1.2,235.2,-30.9
13.193998071911,-59.6414171761166,21.9,0.9,235.3,-30.9
13.1939980559936,-59.6414171706963,21.9,1.3,235.3,-30.9
13.1939980609625,-59.6414172079697,22.3,1.6,235.2,-30.9
13.1939980337024,-59.6414172214853,21.9,1.5,235.2,-30.9
13.1939980602771,-59.6414171878371,21.9,1.3,235.2,-30.9
13.1939980583581,-59.6414171796715,21.9,0.9,235.2,-30.9
13.1939980723394,-59.641417193539,22.3,1.1,235.2,-30.9
13.1939980687241,-59.6414171983962,21.9,1.4,235.2,-30.9
13.1939980932427,-59.6414171874852,21.9,1.1,235.3,-30.9
13.1939981073782,-59.6414171786508,22.3,0.9,235.3,-30.9
13.19399808202,-59.6414172298974,22.3,1.1,235.3,-30.9
13.1939980665653,-59.6414173207757,22.3,1.4,235.3,-30.9
13.1939979561201,-59.6414170321966,22.3,2.1,235.3,-30.9
13.1939979394489,-59.6414169394881,22.3,1.6,235.4,-30.9
13.1939979687992,-59.641417194067,22.3,0.6,235.4,-30.9
13.1939979572853,-59.6414172360216,22.3,1.7,235.3,-30.9
13.1939979485812,-59.6414173482644,22.3,2.5,235.1,-30.9
13.1939979192823,-59.6414173916622,21.9,2.5,235.2,-30.9
13.1939981065558,-59.6414173307364,21.9,1.8,235.3,-30.9
13.1939981618126,-59.6414173668132,21.9,1.8,235.3,-30.9
13.1939981197146,-59.6414174178486,21.9,1.8,235.2,-30.9
13.1939981502986,-59.6414174313642,21.9,1.6,235.2,-30.9
13.1939982280009,-59.6414175315697,21.9,1.6,235.3,-30.9
13.1939982778776,-59.6414175768329,21.9,1.8,235.3,-30.9
13.1939982095648,-59.641417532344,21.9,2,235.2,-30.9
13.1939982240429,-59.6414175492737,21.9,2,235.2,-30.9
13.1939982001583,-59.6414175880255,21.9,1.5,235.3,-30.9
13.1939982226037,-59.6414175791207,21.9,1.9,235.2,-30.9
13.193998185286,-59.6414177717531,21.9,1.6,235.1,-30.9
13.1939981950695,-59.6414178609771,21.9,1.8,235.3,-30.9
13.193998189501,-59.6414176094956,21.9,2,235.2,-30.9
13.1939982010835,-59.6414176018226,21.9,2.1,235.1,-30.9
13.1939981763421,-59.6414175538141,21.9,2.3,235.2,-30.9
13.1939981627207,-59.6414174711719,21.9,1.6,235.3,-30.9
13.193998188096,-59.6414175857729,21.9,1.4,235.2,-30.9
13.1939981645369,-59.6414176096363,21.9,2,235.1,-30.9
13.1939981467862,-59.6414177377529,21.9,2.7,235.3,-30.9
13.1939981275105,-59.6414177616516,21.9,2.9,235.3,-30.9
13.193998146118,-59.6414178334532,21.9,2.8,235.1,-30.9
13.1939981153283,-59.6414178539378,21.9,2.7,235.1,-30.9
13.1939980400934,-59.6414177935752,21.9,2.8,235.2,-30.9
13.1939979979611,-59.641417776927,21.9,2.8,235.2,-30.9
13.1939979424987,-59.6414176504295,21.9,2.8,235.2,-30.9
13.1939979079225,-59.6414175877087,21.9,2.4,235.2,-30.9
13.1939979535329,-59.6414176745042,21.9,2.4,235.3,-30.9
13.1939979466622,-59.6414176718644,21.9,2.8,235.3,-30.9
13.1939979608662,-59.641417458325,21.9,2.3,235.3,-30.9
13.1939979477417,-59.6414174191509,21.9,2.2,235.1,-30.9
13.1939980248613,-59.6414173175376,21.9,2.7,235.2,-30.9
13.1939980867661,-59.6414172694939,21.9,2.5,235.2,-30.9
13.1939980065452,-59.6414173868754,21.9,1.5,235.1,-30.9
13.1939980183162,-59.6414174026788,21.9,2.3,235.1,-30.9
13.1939980901758,-59.6414174180598,21.9,2.7,235.3,-30.9
13.1939981049281,-59.6414174486107,21.9,2.8,235.1,-30.9
13.1939982084511,-59.6414174204532,21.9,3.3,235,-30.9
13.1939982526051,-59.6414174217203,21.9,3.4,235.1,-30.9
13.1939983300161,-59.6414174847579,21.9,2.5,235.2,-30.9
13.1939983942511,-59.6414174743748,21.9,2.1,235.2,-30.9
13.1939983300846,-59.641417510346,21.9,2.4,235.2,-30.9
13.1939983592979,-59.6414175234744,21.9,2.6,235.1,-30.9
13.1939984071015,-59.6414176207234,21.9,2.6,235.2,-30.9
13.1939984254862,-59.6414176346613,21.9,2.3,235.2,-30.9
13.1939983907386,-59.6414176097419,21.9,2.5,235.3,-30.9
13.1939983873118,-59.6414176141064,21.9,2.6,235.3,-30.9
13.1939983702122,-59.6414175959448,21.9,2.5,235.2,-30.9
13.1939983653291,-59.6414175939033,21.9,2.3,235.2,-30.9
13.1939983713945,-59.6414175996052,21.9,2.5,235.3,-30.9
13.193998363016,-59.6414176016114,21.9,2.8,235.1,-30.9
13.1939985048161,-59.6414176884421,21.9,2.5,235.1,-30.9
13.1939985409858,-59.6414176754545,21.9,2.4,235.2,-30.9
13.1939985145824,-59.6414176916802,21.9,2.1,235.2,-30.9
13.1939985373363,-59.6414176874214,21.9,2.1,235.2,-30.9
13.1939984844096,-59.6414177194506,21.9,2.2,235.3,-30.9
13.1939984778474,-59.6414177403223,21.9,2.4,235.2,-30.9
13.1939985854997,-59.6414178031135,21.9,1.9,235.2,-30.9
13.1939985935183,-59.6414178059292,21.9,2.1,235.2,-30.9
13.1939985834607,-59.6414176925954,21.9,2.8,234.9,-30.9
13.1939986153469,-59.64141768985,21.9,2,235,-30.9
13.1939987965893,-59.6414176516262,21.9,1.4,235.4,-30.9
13.1939988976793,-59.6414176039696,21.9,1.7,235.4,-30.9
13.1939988209023,-59.641417664649,21.9,1.8,235.3,-30.9
13.1939988256312,-59.641417628889,21.9,1,235.2,-30.9
13.1939987544399,-59.6414175726796,21.9,1.4,235.1,-30.9
13.1939987035865,-59.6414175573338,21.9,2.2,235.3,-30.9
13.193998771985,-59.6414175677521,21.9,2.3,235.3,-30.9
13.1939987742295,-59.641417546458,21.9,1.8,235.2,-30.9
13.1939986580274,-59.6414177358171,21.9,2.1,235.2,-30.9
13.1939986224575,-59.6414177850927,21.9,2.5,235.3,-30.9
13.1939986712548,-59.6414177113905,21.9,2.6,235.4,-30.9
13.1939986610087,-59.6414177038232,21.9,2.7,235.2,-30.9
13.1939986641271,-59.6414178068444,21.9,2.5,235.1,-30.9
13.1939986327892,-59.6414178095897,21.9,2.3,235.2,-30.9
13.1939985465543,-59.6414177913226,21.9,2.6,235.3,-30.9
13.1939985148052,-59.6414177826993,21.9,2.4,235.2,-30.9
13.1939984541512,-59.6414176749617,21.9,2.2,235.2,-30.9
13.1939984421746,-59.6414176549699,21.9,2.2,235.3,-30.9
13.1939983869863,-59.6414177793556,21.9,2.2,235.2,-30.9
13.1939983986716,-59.6414177671071,21.9,2.2,235.2,-30.9
13.193998375044,-59.6414178257451,21.9,1.9,235.1,-30.9
13.1939983726281,-59.6414178537266,21.9,1.5,235.2,-30.9
13.1939983790362,-59.6414177870637,21.9,1.2,235.3,-30.9
13.1939983863695,-59.6414177670015,21.9,1.1,235.3,-30.9
13.1939985257537,-59.6414176547939,21.9,0.6,235.2,-30.9
13.1939985797769,-59.6414176088972,21.9,0.2,235.2,-30.9
13.193998651825,-59.6414176724979,21.9,0.3,235.4,-30.9
13.1939986952937,-59.6414176672536,21.9,0.3,235.3,-30.9
13.1939987314119,-59.6414176827754,21.9,0.7,235.2,-30.9
13.1939987574555,-59.6414176678168,21.9,0.8,235.4,-30.9
13.1939988086516,-59.6414176566242,21.9,0.1,235.4,-30.9
13.1939988199428,-59.6414176472266,21.9,-0.2,235.4,-30.9
13.1939989770778,-59.6414175610295,21.9,0.3,235.3,-30.9
13.193999056442,-59.6414175422343,21.9,0.5,235.2,-30.9
13.19399891005,-59.6414176988604,21.9,0.1,235.2,-30.9
13.1939989047042,-59.6414177199433,21.9,0.2,235.3,-30.9
13.1939987671018,-59.6414177230406,21.9,0.5,235.3,-30.9
13.1939987413496,-59.6414177590118,21.9,0.7,235.3,-30.9
13.1939987589118,-59.641417696643,21.9,0.8,235.3,-30.9
13.1939987237873,-59.6414176890756,21.9,0.6,235.4,-30.9
13.193998578252,-59.6414178667142,21.9,0.3,235.4,-30.9
13.1939985742941,-59.6414178458073,21.9,0.1,235.3,-30.9
13.1939983930346,-59.6414181104173,21.9,0.2,235.2,-30.9
13.1939983029445,-59.6414182313889,21.9,1.5,235.3,-30.9
13.1939983166345,-59.6414181538502,21.9,2.3,235.3,-30.9
13.1939982772265,-59.6414181688089,21.9,1.6,235.2,-30.9
13.1939982857421,-59.641418104997,21.9,0.9,235.2,-30.9
13.1939982947888,-59.6414181081647,21.9,0.7,235.3,-30.9
13.1939981458781,-59.641418163459,21.9,0.8,235.3,-30.9
13.1939981133237,-59.6414181374133,21.9,0.9,235.4,-30.9
13.1939981477799,-59.6414182256166,21.9,0.6,235.3,-30.9
13.1939981275962,-59.6414182745051,21.9,0.9,235.3,-30.9
13.1939981632519,-59.6414182129458,21.9,1.5,235.2,-30.9
13.193998154188,-59.6414182093909,21.9,1,235.3,-30.9
13.193998203705,-59.6414182838322,21.9,0.2,235.4,-30.9
13.1939982247283,-59.6414182710206,21.9,-0.1,235.3,-30.9
13.1939981986848,-59.6414181846827,22.3,0.5,235.3,-30.9
13.1939982010835,-59.6414181789808,22.3,0.9,235.3,-30.9
13.1939980715341,-59.6414181374133,22.3,0.8,235.3,-30.9
13.1939980559422,-59.6414180687794,22.3,0.5,235.3,-30.9
13.1939980671821,-59.6414181060529,22.3,0.2,235.2,-30.9
13.1939980564734,-59.64141814308,22.3,0.5,235.2,-30.9
13.1939980677304,-59.6414180960218,22.3,0.9,235.2,-30.9
13.1939980445825,-59.6414180738126,22.3,0.8,235.3,-30.9
13.1939979810157,-59.6414179619922,22.3,0.3,235.3,-30.9
13.1939979953568,-59.6414179376711,22.3,0.3,235.3,-30.9
13.1939980874686,-59.6414178521779,22.3,0.3,235.4,-30.9
13.1939980924374,-59.6414178276809,22.3,0,235.4,-30.9
13.193998111953,-59.6414178600972,22.3,0,235.4,-30.9
13.1939981305261,-59.6414178317286,22.3,0.5,235.2,-30.9
13.1939981743718,-59.6414177579207,22.3,1.1,235.1,-30.9
13.1939981501787,-59.6414177248357,22.3,0.7,235.2,-30.9
13.1939980864063,-59.6414176668664,22.3,0.6,235.1,-30.9
13.1939981127582,-59.6414176737298,22.3,0.9,235.1,-30.9
13.193998086235,-59.6414176903076,22.3,1,235,-30.9
13.1939980791244,-59.6414176858376,22.3,1.1,235.1,-30.9
13.1939980786447,-59.6414176909059,22.3,1.1,235.2,-30.9
13.1939980768627,-59.6414176647194,22.3,1,235.2,-30.9
13.1939982244884,-59.6414178295463,22.3,0.6,235.2,-30.9
13.1939982529649,-59.6414178766749,22.3,0.7,235.3,-30.9
13.1939982003296,-59.641417737401,22.3,1.1,235.3,-30.9
13.1939982037221,-59.6414177744281,22.3,1.5,235.3,-30.9
13.1939981983421,-59.6414177610532,22.3,1.5,235.2,-30.9
13.1939982106271,-59.6414176933697,22.3,1.2,235.3,-30.9
13.1939980440342,-59.6414179425635,22.3,0.8,235.2,-30.9
13.1939979904907,-59.6414180513922,22.3,1.7,235.1,-30.9
13.1939980388083,-59.6414182012956,22.3,2.7,235.1,-30.9
13.1939980001714,-59.6414183152983,22.3,3.3,235.1,-30.9
13.1939979922555,-59.6414183861495,22.3,3,235.1,-30.9
13.1939980178707,-59.6414184491871,22.3,2.1,235.2,-30.9
13.1939979733397,-59.6414184529884,22.3,1.8,235.3,-30.9
13.1939979527962,-59.6414185097961,22.3,2.5,235.2,-30.9
13.1939979901652,-59.6414184251125,22.3,2.8,235.3,-30.9
13.193997997053,-59.641418428069,22.3,2.5,235.4,-30.9
13.1939979781715,-59.6414184987795,22.3,2.6,235.3,-30.9
13.1939979622198,-59.6414184848416,22.3,2.9,235.2,-30.9
13.1939978552358,-59.6414184703404,22.3,2.2,235.3,-30.9
13.193997830186,-59.6414184389448,22.3,1.5,235.4,-30.9
13.1939978557326,-59.6414185320054,22.3,1.7,235.4,-30.9
13.1939978303573,-59.6414185839559,22.3,2.2,235.3,-30.9
13.1939978749397,-59.6414186391798,22.3,2.7,235.3,-30.9
13.1939978647965,-59.6414186611426,22.3,3.2,235.2,-30.9
13.1939977508046,-59.6414187939404,22.3,2.9,235.2,-30.9
13.1939977273826,-59.6414188766178,22.3,3.3,235.2,-30.9
13.1939977451847,-59.6414187457207,22.3,3.6,235.2,-30.9
13.1939977153203,-59.6414187676483,22.3,3.2,235.3,-30.9
13.1939977807718,-59.6414185433739,22.3,3,235.2,-30.9
13.1939977909494,-59.641418477591,22.3,3,235.1,-30.9
13.1939979321841,-59.6414184275762,22.3,2.2,235.1,-30.9
13.1939979963848,-59.6414183605614,22.3,1.8,235.2,-30.9
13.1939979119832,-59.6414184770278,22.3,1.9,235.2,-30.9
13.1939979334006,-59.6414184793508,22.3,2.4,235.2,-30.9
13.1939978442015,-59.6414186455152,22.3,2.6,235.2,-30.9
13.1939977952157,-59.6414186900041,22.3,3,235.2,-30.9
13.1939978843291,-59.6414185399246,22.3,3.3,235.2,-30.9
13.1939979144676,-59.6414185697364,22.3,3.2,235.1,-30.9
13.1939979060892,-59.6414183807292,22.3,3.4,235,-30.9
13.1939979475875,-59.6414183051616,21.9,3,235.2,-30.9
13.1939980211262,-59.6414183501784,22.3,2,235.2,-30.9
13.1939980589235,-59.6414183142776,22.3,2.2,235,-30.9
13.1939979991605,-59.6414182886542,22.3,2.8,235.1,-30.9
13.1939980245872,-59.6414182881967,21.9,2.4,235.2,-30.9
13.1939979901309,-59.6414181742644,22.3,2.2,235.2,-30.9
13.1939979773148,-59.6414181288253,22.3,2.5,235.1,-30.9
13.1939979730313,-59.6414180166529,22.3,2.8,235.2,-30.9
13.1939979698444,-59.6414179149691,22.3,2.4,235.3,-30.9
13.1939980062368,-59.6414179613938,22.3,2.1,235.2,-30.9
13.193998027637,-59.6414179529817,22.3,2.3,235.2,-30.9
13.1939979476731,-59.6414179790978,22.3,2.5,235.2,-30.9
13.1939979004521,-59.6414179547768,22.3,2.5,235.3,-30.9
13.193997828781,-59.6414178924431,22.3,2.3,235.3,-30.9
13.1939977712111,-59.641417896526,22.3,2.7,235.3,-30.9
13.193997722448,-59.6414178654472,22.3,3,235.3,-30.9
13.1939976874092,-59.6414178252171,22.3,2.3,235.2,-30.9
13.1939977571442,-59.641417777103,22.3,1.9,235.2,-30.9
13.1939977460414,-59.6414177725978,22.3,2.3,235.3,-30.9
13.1939979159926,-59.6414177989954,22.3,2.3,235.3,-30.9
13.1939980011994,-59.6414178029375,22.3,2.2,235.3,-30.9
13.1939980498426,-59.6414178079003,22.3,2.5,235.2,-30.9
13.1939980907755,-59.6414178107512,22.3,2.2,235.2,-30.9
13.1939980343364,-59.641417884911,22.3,1.7,235.2,-30.9
13.1939980669079,-59.6414178723105,22.3,1.5,235.4,-30.9
13.193998069341,-59.6414179252466,22.3,2.3,235.4,-30.9
13.1939980319891,-59.6414179713897,22.3,3.2,235.3,-30.9
13.1939979603522,-59.6414178992009,22.3,2.9,235.3,-30.9
13.1939979516139,-59.6414178773437,22.3,2.3,235.3,-30.9
13.1939979454971,-59.6414180391437,22.3,2.4,235.2,-30.9
13.1939979162153,-59.6414180806408,22.3,2.8,235.3,-30.9
13.1939978623635,-59.6414179139132,22.3,3.1,235.3,-30.9
13.1939978571547,-59.6414179116958,22.3,2.5,235.3,-30.9
13.1939978503869,-59.6414178770621,22.3,2.5,235.4,-30.9
13.1939978251829,-59.6414178559088,22.3,2.7,235.4,-30.9
13.1939978970253,-59.6414178565071,22.3,2.5,235.3,-30.9
13.1939979140736,-59.6414178174386,22.3,2.7,235.2,-30.9
13.1939978702108,-59.6414177783701,22.3,2.3,235.1,-30.9
13.1939978522202,-59.6414177558089,21.9,1.7,235.2,-30.9
13.1939977884478,-59.6414176355412,21.9,1.7,235.3,-30.9
13.1939978187405,-59.6414175632821,21.9,1.5,235.3,-30.9
13.1939977503078,-59.6414175493793,21.9,0.9,235.2,-30.9
13.1939976972098,-59.6414175112963,21.9,1.1,235.3,-30.9
13.1939976340542,-59.6414174520248,21.9,1.7,235.4,-30.9
13.1939976068285,-59.6414174197493,21.9,1.5,235.3,-30.9
13.1939976442147,-59.6414173399228,21.9,1.2,235.2,-30.9
13.1939976151898,-59.6414172940612,21.9,0.5,235.1,-30.9
13.19399766397,-59.6414173372478,21.9,1,235.1,-30.9
13.1939976570308,-59.6414172906824,22.3,1.3,235.1,-30.9
13.1939975449751,-59.6414174255919,22.3,1.2,235.1,-30.9
13.1939975190687,-59.6414174755363,22.3,1.7,235.1,-30.9
13.1939974374599,-59.6414175341391,22.3,1.7,235,-30.9
13.1939973966641,-59.6414175506816,22.3,1.9,235.2,-30.9
13.19399730875,-59.6414176429326,22.3,2.3,235.3,-30.9
13.193997235554,-59.641417745989,21.9,3.2,235.4,-30.9
13.1939972101959,-59.6414175848929,21.9,3.2,235.3,-30.9
13.1939971273535,-59.6414174960912,21.9,2.4,235.2,-30.9
13.1939972105214,-59.6414175409321,21.9,2,235.4,-30.9
13.1939971926165,-59.6414175134433,21.9,1.4,235.3,-30.9
13.193997267406,-59.6414174778945,21.9,1.3,235.1,-30.9
13.193997263568,-59.6414174980271,21.9,1.3,235.2,-30.9
13.1939973086815,-59.641417359633,21.9,1.1,235.3,-30.9
13.1939973510022,-59.6414173171856,21.9,0.9,235.3,-30.9
13.1939971531228,-59.6414173679395,21.9,0.9,235.2,-30.9
13.1939971281074,-59.6414173686082,21.9,0.6,235.2,-30.9
13.1939970046233,-59.6414172855084,21.9,0.9,235.2,-30.9
13.1939968971253,-59.6414173057466,21.9,1.7,235.2,-30.9
13.1939970244987,-59.6414175332592,21.9,3.3,235.4,-30.9
13.1939970323803,-59.6414176032305,21.9,3.9,235.5,-30.9
13.1939969924411,-59.6414177317694,21.9,3.1,235.4,-30.9
13.1939970045548,-59.6414178333476,21.9,2.7,235.4,-30.9
13.1939969385722,-59.6414177334589,21.9,4.1,235.5,-30.9
13.1939969126486,-59.641417747784,21.9,4.5,235.6,-30.9
13.1939968675008,-59.6414178778364,21.9,3.1,235.3,-30.9
13.1939968889867,-59.6414178523539,21.9,1.9,235.2,-30.9
13.1939967365121,-59.6414180944731,21.9,2.9,235.4,-30.9
13.193996708087,-59.6414182336767,21.9,4.8,235.4,-30.9
13.1939968581456,-59.6414182509584,21.9,4.8,235.3,-30.9
13.1939968757936,-59.6414182702463,21.9,3.9,235.4,-30.9
13.1939970062853,-59.6414182189292,21.9,3.2,235.3,-30.9
13.1939970491372,-59.6414182723933,21.9,3.1,235.2,-30.9
13.1939971357662,-59.6414181763058,21.9,3.5,235.2,-30.9
13.1939971257257,-59.641418104821,21.9,3.8,235.1,-30.9
13.1939969861873,-59.6414178206415,21.9,4.2,235,-30.9
13.19399678961,-59.641417561663,21.9,4.2,234.9,-30.9
13.1939964160225,-59.6414171741456,21.9,4.4,234.8,-30.9
13.193995858297,-59.6414165630928,21.9,4.6,234.9,-30.9
13.1939951056391,-59.6414159932204,21.9,5.1,234.9,-30.9
13.1939943006028,-59.6414151545495,21.9,4.9,234.7,-30.9
13.1939933738645,-59.6414143496676,21.9,5.1,234.7,-30.9
13.1939924668816,-59.6414135144461,21.9,4.7,235,-30.9
13.1939915598644,-59.6414125102444,21.9,3.4,235.3,-30.9
13.1939905595017,-59.641411406154,21.9,2.6,235.2,-30.9
13.1939895594132,-59.6414106038063,21.9,2.6,235.2,-30.9
13.1939886351421,-59.6414097509862,21.9,3.1,235.2,-30.9
13.1939878753737,-59.6414089012988,21.9,3.2,235.3,-30.9
13.1939869953938,-59.6414079958243,21.9,1.5,235.4,-30.9
13.1939863213976,-59.641407454954,21.9,0.7,235.5,-30.9
13.1939856206897,-59.6414067983566,21.9,1.3,235.4,-30.9
13.1939851801942,-59.6414063258035,21.9,2.1,235.3,-30.9
13.1939848068295,-59.6414059633462,21.9,2.6,235.3,-30.9
13.1939846469359,-59.641405743753,21.9,2.6,235.4,-30.9
13.1939844845066,-59.6414055450315,21.9,2.3,235.3,-30.9
13.1939843797499,-59.6414052972103,21.9,2.4,235.3,-30.9
13.1939843445397,-59.64140516216,21.9,2.3,235.4,-30.9
13.1939842353625,-59.6414052281189,21.9,2.2,235.3,-30.9
13.193984217509,-59.6414052135474,21.9,2.5,235.4,-30.9
13.1939841833269,-59.6414051921477,21.9,2.5,235.4,-30.9
13.1939842182972,-59.6414052092534,21.9,2.3,235.4,-30.9
13.193984299272,-59.6414052188269,21.9,2.6,235.3,-30.9
13.1939843180336,-59.6414052439575,21.9,2.7,235.3,-30.9
13.1939843229853,-59.6414051963713,21.9,2.5,235.4,-30.9
13.1939843520101,-59.6414051961954,21.9,2.2,235.4,-30.9
13.1939842494637,-59.6414052084087,21.9,2.4,235.3,-30.9
13.1939841881244,-59.6414052278725,21.9,3,235.3,-30.9
13.1939842572768,-59.6414051852843,21.9,3.1,235.4,-30.9
13.1939842603609,-59.6414051667356,21.9,2.7,235.4,-30.9
13.1939842677456,-59.6414052298436,21.9,2.7,235.3,-30.9
13.1939842512114,-59.6414051568804,21.9,2.3,235.2,-30.9
13.1939841292866,-59.6414052364958,21.9,2,235.2,-30.9
13.1939840776107,-59.6414053430718,21.9,2.6,235.2,-30.9
13.1939841699282,-59.6414051102798,21.9,3.4,235.3,-30.9
13.193984186411,-59.6414049770949,21.9,2.1,235.3,-30.9
13.1939841685746,-59.6414052032347,21.9,1.1,235.3,-30.9
13.1939841543363,-59.6414052581066,21.9,1.6,235.2,-30.9
13.1939840263804,-59.6414052005246,21.9,2.5,235.2,-30.9
13.1939839684164,-59.6414051981312,21.9,3,235.3,-30.9
13.1939840430517,-59.6414053029474,21.9,2.6,235.3,-30.9
13.1939840312807,-59.641405319138,21.9,2.7,235.3,-30.9
13.1939840662167,-59.6414053188564,21.9,2.5,235.2,-30.9
13.1939840586778,-59.6414053292043,21.9,2.3,235.2,-30.9
13.1939840736185,-59.6414052595849,21.9,2.3,235.4,-30.9
13.193984066902,-59.6414052104149,21.9,2,235.4,-30.9
13.1939840450049,-59.6414051422738,21.9,2.1,235.3,-30.9
13.1939840248897,-59.6414051019733,21.9,2,235.3,-30.9
13.1939840718195,-59.6414049412996,21.9,2.1,235.3,-30.9
13.1939840776793,-59.6414049020552,21.9,2,235.2,-30.9
13.1939840903412,-59.6414048316614,21.9,1.7,235.1,-30.9
13.1939841268022,-59.6414047585927,21.9,1.4,235.3,-30.9
13.1939840765484,-59.6414048580591,21.9,1.5,235.3,-30.9
13.1939840514644,-59.6414048199761,21.9,2.2,235.4,-30.9
13.1939839224975,-59.6414048973036,21.9,2.4,235.3,-30.9
13.1939838922391,-59.6414049106784,21.9,2.2,235.1,-30.9
13.1939839305162,-59.6414050290806,21.9,2.4,235.2,-30.9
13.1939839095272,-59.6414050701906,21.9,2.3,235.2,-30.9
13.1939839764179,-59.6414051195718,21.9,2.4,235.1,-30.9
13.1939840026842,-59.6414051506858,21.9,2.1,235.1,-30.9
13.1939839989833,-59.6414051225635,21.9,2.2,235.2,-30.9
13.1939840296015,-59.6414051592738,21.9,2.7,235.3,-30.9
13.1939841182009,-59.6414051063378,21.9,2.6,235.4,-30.9
13.1939841596136,-59.6414051022901,21.9,1.8,235.2,-30.9
13.1939842298112,-59.6414052107668,21.9,1.7,235.3,-30.9
13.1939842843826,-59.6414052445206,21.9,2.1,235.2,-30.9
13.1939843093296,-59.6414051670172,21.9,2.5,234.9,-30.9
13.1939843293591,-59.6414051253793,21.9,2,234.8,-30.9
13.1939843132361,-59.6414051949986,21.9,2,235,-30.9
13.193984366454,-59.6414052275558,21.9,2,235.1,-30.9
13.1939842952284,-59.6414052234377,21.9,2,235.1,-30.9
13.1939843027673,-59.6414052630342,21.9,2.1,235.2,-30.9
13.1939842914932,-59.6414053225873,21.9,2,235.4,-30.9
13.1939843117283,-59.6414053527862,21.9,2.1,235.4,-30.9
13.1939844058962,-59.6414054049479,21.9,2.3,235.5,-30.9
13.1939844218822,-59.6414053992109,21.9,2.3,235.6,-30.9
13.1939844011673,-59.641405496319,21.9,1.9,235.6,-30.9
13.1939844221392,-59.6414054997331,21.9,1.6,235.4,-30.9
13.1939842432784,-59.641405492025,21.9,1.9,235.4,-30.9
13.1939841969312,-59.6414054889277,21.9,1.7,235.4,-30.9
13.1939842342317,-59.6414054864639,21.9,2.1,235.3,-30.9
13.1939842038704,-59.6414054843169,21.9,2.2,235.3,-30.9
13.1939841485279,-59.6414055200769,21.9,1.8,235.2,-30.9
13.1939841332102,-59.6414055535491,21.9,2.1,235.3,-30.9
13.1939840584893,-59.6414055087083,21.9,2.4,235.3,-30.9
13.1939840451077,-59.6414055206752,21.9,2.6,235.4,-30.9
13.1939839346797,-59.6414054910043,21.9,2.7,235.4,-30.9
13.1939838697937,-59.6414054722092,21.9,2.7,235.4,-30.9
13.1939839041643,-59.6414054764328,21.9,2.4,235.3,-30.9
13.193983856395,-59.6414054672464,21.9,2.5,235.4,-30.9
13.1939838511006,-59.6414055095882,21.9,2.6,235.4,-30.9
13.1939838507922,-59.6414055345076,21.9,2.8,235.3,-30.9
13.1939838700849,-59.6414055250396,21.9,2.8,235.2,-30.9
13.1939838715585,-59.6414055466153,21.9,2.2,235.3,-30.9
13.1939838949291,-59.6414054803044,21.9,2.3,235.3,-30.9
13.1939839256673,-59.641405469675,21.9,2.6,235.3,-30.9
13.1939838710958,-59.6414056133838,21.9,2.4,235.3,-30.9
13.1939838558467,-59.6414056306302,21.9,2.6,235.3,-30.9
13.1939837506445,-59.6414055005074,21.9,2.6,235.3,-30.9
13.1939837176618,-59.6414055056814,21.9,2.7,235.3,-30.9
13.1939837458642,-59.6414054621076,21.9,2.9,235.3,-30.9
13.193983729844,-59.6414054183932,21.9,2.5,235.3,-30.9
13.1939837654825,-59.6414053705958,21.9,2.4,235.3,-30.9
13.1939837629295,-59.6414053627469,21.9,2.8,235.3,-30.9
13.1939837813828,-59.6414053483162,21.9,2.8,235.3,-30.9
13.1939838013266,-59.6414053037218,21.9,2.2,235.2,-30.9
13.1939838805538,-59.6414054199066,21.9,2.2,235.3,-30.9
13.1939838835179,-59.6414054798821,21.9,2.8,235.3,-30.9
13.1939839225832,-59.6414055394,21.9,2.5,235.3,-30.9
13.1939839796734,-59.6414055729074,21.9,2.2,235.3,-30.9
13.1939838710444,-59.6414053910452,21.9,2.6,235.3,-30.9
13.1939838326645,-59.6414053658794,21.9,3,235.3,-30.9
13.1939838738715,-59.6414053596496,21.9,2.9,235.4,-30.9
13.1939838927874,-59.6414053243119,21.9,1.9,235.4,-30.9
13.1939839004805,-59.6414052654276,21.9,1.6,235.3,-30.9
13.1939839140677,-59.6414052600072,21.9,2.2,235.1,-30.9
13.1939839905191,-59.6414051663132,21.9,2.3,235.3,-30.9
13.1939840050658,-59.6414051470253,21.9,2.1,235.3,-30.9
13.1939838732033,-59.641405191303,21.9,2.4,235.3,-30.9
13.1939838672065,-59.6414052041498,21.9,2.9,235.3,-30.9
13.1939839778058,-59.6414052070712,21.9,3.3,235.4,-30.9
13.1939840017418,-59.6414052164335,21.9,3.3,235.4,-30.9
13.1939840190471,-59.6414053266701,21.9,2.6,235.4,-30.9
13.1939840492884,-59.6414053411712,21.9,2.1,235.3,-30.9
13.1939839706267,-59.641405166982,21.9,1.7,235.4,-30.9
13.1939839556688,-59.6414051336153,21.9,1.5,235.4,-30.9
13.193983949295,-59.6414051756404,21.9,1.9,235.3,-30.9
13.1939839384149,-59.6414051762035,21.9,2,235.2,-30.9
13.1939839685363,-59.6414051958082,21.9,2,235.3,-30.9
13.193983963893,-59.6414052041146,21.9,2.1,235.3,-30.9
13.1939838720896,-59.6414052032699,21.9,2.3,235.2,-30.9
13.1939838708217,-59.6414052191789,21.9,2.6,235.2,-30.9
13.193983854219,-59.6414053068543,21.9,2.9,235.2,-30.9
13.1939838339838,-59.6414053056576,21.9,2.3,235.6,-30.9
13.1939837261088,-59.6414053086845,21.9,1.7,235.3,-30.9
13.1939836616682,-59.6414053316681,21.9,3.2,235.1,-30.9
13.1939836382804,-59.6414052998853,21.9,3.5,235.3,-30.9
13.1939836402508,-59.6414052955561,21.9,2.2,235.3,-30.9
13.1939836369269,-59.6414053273389,21.9,1.5,235.3,-30.9
13.1939836043553,-59.6414053745379,21.9,2.6,235.3,-30.9
13.1939836721884,-59.6414054051591,21.9,3.7,235.3,-30.9
13.1939836858955,-59.6414053805565,21.9,2.8,235.3,-30.9
13.1939836834625,-59.6414054148031,21.9,1.9,235.4,-30.9
13.1939836951992,-59.6414054478881,21.9,2.5,235.3,-30.9
13.1939836534439,-59.6414053818236,21.9,3.4,235.4,-30.9
13.1939836370811,-59.6414053463804,21.9,3.1,235.4,-30.9
13.193983709369,-59.6414053669353,21.9,2.1,235.4,-30.9
13.1939837731585,-59.6414053377571,21.9,1,235.3,-30.9
13.1939836814579,-59.6414052200236,21.9,0.6,235.2,-30.9
13.1939836387602,-59.641405152692,21.9,1.3,235.2,-30.9
13.1939836388287,-59.6414051726486,21.9,2.3,235.3,-30.9
13.1939836283256,-59.6414051860938,21.9,2.5,235.3,-30.9
13.1939835636623,-59.6414053104796,21.9,2.2,235.2,-30.9
13.1939835298571,-59.6414053186452,21.9,2.6,235.3,-30.9
13.1939835566031,-59.6414052940074,21.9,2.9,235.3,-30.9
13.1939835444552,-59.6414052840115,21.9,2.8,235.3,-30.9